City/Town,State,County,Latitude,Longitude,Avg Daily Irradiance,Est. Energy Production Per Day
New York,NY,Queens,40.6943,-73.9249,4.1004,1.4761
Los Angeles,CA,Los Angeles,34.1141,-118.4068,5.6778,2.044
Chicago,IL,Cook,41.8375,-87.6866,3.9205,1.4114
Miami,FL,Miami-Dade,25.784,-80.2101,5.0915,1.8329
Houston,TX,Harris,29.786,-95.3885,4.7376,1.7055
Dallas,TX,Dallas,32.7935,-96.7667,4.7744,1.7188
Philadelphia,PA,Philadelphia,40.0077,-75.1339,3.9492,1.4217
Atlanta,GA,Fulton,33.7628,-84.422,4.5579,1.6408
Washington,DC,District of Columbia,38.9047,-77.0163,4.2275,1.5219
Boston,MA,Suffolk,42.3188,-71.0852,3.9001,1.404
Phoenix,AZ,Maricopa,33.5722,-112.0892,5.8997,2.1239
Detroit,MI,Wayne,42.3834,-83.1024,3.8465,1.3847
Seattle,WA,King,47.6211,-122.3244,3.6009,1.2963
San Francisco,CA,San Francisco,37.7558,-122.4449,4.8794,1.7566
San Diego,CA,San Diego,32.8313,-117.1222,5.0458,1.8165
Minneapolis,MN,Hennepin,44.9635,-93.2678,3.9987,1.4395
Tampa,FL,Hillsborough,27.9945,-82.4447,5.2308,1.8831
Brooklyn,NY,Kings,40.6501,-73.9496,4.1004,1.4761
Denver,CO,Denver,39.762,-104.8758,4.9126,1.7685
Queens,NY,Queens,40.7498,-73.7976,4.1004,1.4761
Riverside,CA,Riverside,33.9381,-117.3949,5.4726,1.9701
Las Vegas,NV,Clark,36.2333,-115.2654,5.6517,2.0346
Baltimore,MD,Baltimore,39.3051,-76.6144,4.1694,1.501
St. Louis,MO,St. Louis,38.6359,-90.2451,4.2585,1.5331
Portland,OR,Multnomah,45.5371,-122.65,3.8231,1.3763
San Antonio,TX,Bexar,29.4632,-98.5238,4.952,1.7827
Sacramento,CA,Sacramento,38.5677,-121.4685,5.333,1.9199
Austin,TX,Travis,30.3005,-97.7522,4.9071,1.7666
Orlando,FL,Orange,28.4773,-81.337,4.9408,1.7787
San Juan,PR,San Juan,18.3985,-66.061,5.5331,1.9919
San Jose,CA,Santa Clara,37.3012,-121.848,5.4264,1.9535
Pittsburgh,PA,Allegheny,40.4397,-79.9763,3.8265,1.3775
Indianapolis,IN,Marion,39.7771,-86.1458,4.0917,1.473
Manhattan,NY,New York,40.7834,-73.9662,4.1004,1.4761
Cincinnati,OH,Hamilton,39.1413,-84.506,4.0729,1.4662
Kansas City,MO,Jackson,39.1238,-94.5541,4.3191,1.5549
Cleveland,OH,Cuyahoga,41.4764,-81.6805,3.775,1.359
Columbus,OH,Franklin,39.9862,-82.9855,3.9859,1.4349
Bronx,NY,Bronx,40.8501,-73.8662,4.1004,1.4761
Virginia Beach,VA,Virginia Beach,36.7335,-76.0435,4.4303,1.5949
Charlotte,NC,Mecklenburg,35.2083,-80.8303,4.5416,1.635
Milwaukee,WI,Milwaukee,43.0642,-87.9675,3.7251,1.341
Providence,RI,Providence,41.823,-71.4187,4.1025,1.4769
Jacksonville,FL,Duval,30.3322,-81.6749,4.7861,1.723
Nashville,TN,Davidson,36.1715,-86.7842,4.3173,1.5542
Salt Lake City,UT,Salt Lake,40.7776,-111.9311,4.923,1.7723
Raleigh,NC,Wake,35.8324,-78.6429,4.5425,1.6353
Richmond,VA,Richmond,37.5295,-77.4756,4.3699,1.5732
Memphis,TN,Shelby,35.1087,-89.9663,4.4866,1.6152
Oklahoma City,OK,Oklahoma,35.4676,-97.5136,4.8256,1.7372
Hartford,CT,Capitol,41.7661,-72.6834,4.0035,1.4413
Louisville,KY,Jefferson,38.1663,-85.6485,4.1544,1.4956
Buffalo,NY,Erie,42.9018,-78.8487,3.695,1.3302
New Orleans,LA,Orleans,30.0687,-89.9288,4.7195,1.699
Fort Worth,TX,Tarrant,32.7817,-97.3474,4.9167,1.77
Bridgeport,CT,Greater Bridgeport,41.1918,-73.1954,3.9479,1.4212
Tucson,AZ,Pima,32.1541,-110.8787,5.8832,2.118
El Paso,TX,El Paso,31.8476,-106.43,5.9393,2.1381
Omaha,NE,Douglas,41.2627,-96.0529,4.3532,1.5672
McAllen,TX,Hidalgo,26.2252,-98.2467,5.1452,1.8523
Birmingham,AL,Jefferson,33.5279,-86.7971,4.5741,1.6467
Albuquerque,NM,Bernalillo,35.1054,-106.6465,5.5494,1.9978
Tulsa,OK,Tulsa,36.1283,-95.9042,4.5563,1.6403
Fresno,CA,Fresno,36.783,-119.7939,5.4624,1.9665
Charleston,SC,Charleston,32.8168,-79.9687,4.7535,1.7113
Rochester,NY,Monroe,43.168,-77.6162,3.6703,1.3213
Dayton,OH,Montgomery,39.7805,-84.2003,4.0729,1.4662
Cape Coral,FL,Lee,26.6443,-81.9957,5.1341,1.8483
Mission Viejo,CA,Orange,33.6096,-117.6551,5.4726,1.9701
Colorado Springs,CO,El Paso,38.8674,-104.7605,5.0743,1.8267
Baton Rouge,LA,East Baton Rouge,30.442,-91.1311,4.6944,1.69
Allentown,PA,Lehigh,40.5961,-75.4756,3.9492,1.4217
Ogden,UT,Weber,41.2279,-111.9682,4.8707,1.7535
Provo,UT,Utah,40.2457,-111.6457,4.923,1.7723
Knoxville,TN,Knox,35.9692,-83.9496,4.4037,1.5853
Grand Rapids,MI,Kent,42.9619,-85.6562,3.8138,1.373
Columbia,SC,Richland,34.0378,-80.9036,4.5959,1.6545
Albany,NY,Albany,42.6664,-73.7987,3.8074,1.3707
Bakersfield,CA,Kern,35.3529,-119.0359,5.6404,2.0305
New Haven,CT,South Central Connecticut,41.3113,-72.9246,4.0035,1.4413
Des Moines,IA,Polk,41.5725,-93.6105,4.2286,1.5223
Akron,OH,Summit,41.0798,-81.5219,3.775,1.359
Palm Bay,FL,Brevard,27.9631,-80.6593,5.0288,1.8104
Concord,CA,Contra Costa,37.9722,-122.0016,4.8794,1.7566
Wichita,KS,Sedgwick,37.6895,-97.3443,4.7289,1.7024
Mesa,AZ,Maricopa,33.4015,-111.7178,5.8669,2.1121
Harrisburg,PA,Dauphin,40.2752,-76.8843,3.9593,1.4253
Staten Island,NY,Richmond,40.5834,-74.1496,4.0175,1.4463
Toledo,OH,Lucas,41.6638,-83.5827,3.9523,1.4228
Worcester,MA,Worcester,42.2705,-71.8079,3.9001,1.404
Long Beach,CA,Los Angeles,33.7977,-118.167,5.1711,1.8616
Port St. Lucie,FL,St. Lucie,27.2796,-80.3884,5.0288,1.8104
Little Rock,AR,Pulaski,34.7256,-92.3577,4.4586,1.6051
Reno,NV,Washoe,39.5497,-119.8483,5.2929,1.9054
Spokane,WA,Spokane,47.6671,-117.433,3.8932,1.4016
Madison,WI,Dane,43.0822,-89.393,3.9028,1.405
Boise,ID,Ada,43.6005,-116.2308,4.5942,1.6539
Bonita Springs,FL,Lee,26.3558,-81.7859,5.1341,1.8483
Denton,TX,Denton,33.2175,-97.1418,4.8974,1.7631
Oakland,CA,Alameda,37.7904,-122.2166,4.8794,1.7566
Springfield,MA,Hampden,42.1155,-72.5395,3.8491,1.3857
Augusta,GA,Richmond,33.3645,-82.0708,4.6275,1.6659
Kissimmee,FL,Osceola,28.3041,-81.4169,4.9408,1.7787
Winston-Salem,NC,Forsyth,36.1029,-80.261,4.4248,1.5929
Stockton,CA,San Joaquin,37.9765,-121.3109,5.4264,1.9535
Syracuse,NY,Onondaga,43.0407,-76.1437,3.6955,1.3304
Chattanooga,TN,Hamilton,35.066,-85.2481,4.381,1.5772
Lancaster,PA,Lancaster,40.042,-76.3012,3.9593,1.4253
Greenville,SC,Greenville,34.8354,-82.3646,4.6288,1.6664
Durham,NC,Durham,35.9792,-78.9022,4.5425,1.6353
Pensacola,FL,Escambia,30.4413,-87.1911,4.8569,1.7485
Fayetteville,AR,Washington,36.0714,-94.1661,4.5144,1.6252
Arlington,TX,Tarrant,32.6998,-97.125,4.9167,1.77
Aurora,CO,Arapahoe,39.7083,-104.7237,4.9126,1.7685
Oxnard,CA,Ventura,34.1964,-119.1815,5.5726,2.0061
Indio,CA,Riverside,33.7346,-116.2346,5.8457,2.1045
Scranton,PA,Lackawanna,41.4044,-75.6649,3.7647,1.3553
Victorville,CA,San Bernardino,34.5277,-117.3536,5.8149,2.0934
Trenton,NJ,Mercer,40.2237,-74.7641,4.0175,1.4463
Modesto,CA,Stanislaus,37.6375,-121.0028,5.4264,1.9535
Huntsville,AL,Madison,34.6981,-86.6412,4.499,1.6196
Honolulu,HI,Honolulu,21.3294,-157.846,5.8149,2.0934
Greensboro,NC,Guilford,36.0956,-79.8271,4.4481,1.6013
Anaheim,CA,Orange,33.839,-117.8574,5.4726,1.9701
Corpus Christi,TX,Nueces,27.7254,-97.3767,4.9197,1.7711
Fort Wayne,IN,Allen,41.0888,-85.1436,3.8924,1.4013
Fort Collins,CO,Larimer,40.5477,-105.0656,4.7164,1.6979
Jackson,MS,Hinds,32.3157,-90.2125,4.6853,1.6867
Myrtle Beach,SC,Horry,33.7094,-78.8844,4.6748,1.6829
Fayetteville,NC,Cumberland,35.085,-78.9772,4.5425,1.6353
Antioch,CA,Contra Costa,37.9787,-121.796,5.4264,1.9535
Lansing,MI,Ingham,42.7142,-84.5601,3.8391,1.3821
Lexington,KY,Fayette,38.0423,-84.4587,4.1444,1.492
Mobile,AL,Mobile,30.6782,-88.1162,4.7763,1.7195
Youngstown,OH,Mahoning,41.0993,-80.6463,3.8039,1.3694
Henderson,NV,Clark,36.0133,-115.0381,5.6517,2.0346
Savannah,GA,Chatham,32.0286,-81.1821,4.7039,1.6934
Poughkeepsie,NY,Dutchess,41.695,-73.9211,3.9479,1.4212
Santa Ana,CA,Orange,33.7367,-117.8819,5.4726,1.9701
Ann Arbor,MI,Washtenaw,42.2759,-83.731,3.8465,1.3847
St. Paul,MN,Ramsey,44.9478,-93.1039,3.9987,1.4395
Newark,NJ,Essex,40.7245,-74.1725,4.0175,1.4463
Irvine,CA,Orange,33.6772,-117.7738,5.4726,1.9701
Santa Rosa,CA,Sonoma,38.4458,-122.7067,5.268,1.8965
Canton,OH,Stark,40.8078,-81.3676,3.8937,1.4017
Asheville,NC,Buncombe,35.5707,-82.5537,4.4563,1.6043
Flint,MI,Genesee,43.0236,-83.6921,3.7992,1.3677
Winter Haven,FL,Polk,28.0118,-81.7014,4.9408,1.7787
Anchorage,AK,Anchorage,61.1508,-149.1091,2.5749,0.927
Lincoln,NE,Lancaster,40.8099,-96.6784,4.439,1.598
Concord,NC,Cabarrus,35.3933,-80.6369,4.5416,1.635
Jersey City,NJ,Hudson,40.7184,-74.0686,4.0175,1.4463
Springfield,MO,Greene,37.1943,-93.2916,4.4344,1.5964
Plano,TX,Collin,33.0502,-96.7486,4.7418,1.707
Shreveport,LA,Caddo,32.4653,-93.7955,4.5969,1.6549
Davenport,IA,Scott,41.5565,-90.6053,4.0687,1.4647
Lubbock,TX,Lubbock,33.5657,-101.8879,5.499,1.9796
Lakeland,FL,Polk,28.0557,-81.9545,4.9408,1.7787
South Bend,IN,St. Joseph,41.6767,-86.2696,3.8863,1.3991
Chula Vista,CA,San Diego,32.6281,-117.0144,5.0458,1.8165
Chandler,AZ,Maricopa,33.2825,-111.8514,5.8669,2.1121
Rockford,IL,Winnebago,42.2596,-89.064,3.984,1.4342
Reading,PA,Berks,40.34,-75.9267,3.9492,1.4217
Eugene,OR,Lane,44.0564,-123.1174,4.0182,1.4466
Wilmington,NC,New Hanover,34.2099,-77.8866,4.641,1.6708
Santa Clarita,CA,Los Angeles,34.4175,-118.4964,5.6778,2.044
Gilbert,AZ,Maricopa,33.31,-111.7463,5.8669,2.1121
Salem,OR,Marion,44.9233,-123.0244,4.0182,1.4466
Killeen,TX,Bell,31.0753,-97.7297,4.8957,1.7625
Round Lake Beach,IL,Lake,42.3791,-88.0811,3.9446,1.4201
Columbus,GA,Muscogee,32.51,-84.8771,4.6561,1.6762
North Las Vegas,NV,Clark,36.2883,-115.0888,5.6517,2.0346
Kennewick,WA,Benton,46.1978,-119.1732,4.2752,1.5391
St. Petersburg,FL,Pinellas,27.7931,-82.6652,5.2308,1.8831
Tallahassee,FL,Leon,30.4551,-84.2527,4.7712,1.7176
Laredo,TX,Webb,27.5625,-99.4874,5.2189,1.8788
Irving,TX,Dallas,32.8583,-96.9702,4.7744,1.7188
Peoria,IL,Peoria,40.752,-89.6154,4.1026,1.4769
Montgomery,AL,Montgomery,32.3482,-86.2668,4.6675,1.6803
Chesapeake,VA,Chesapeake,36.6778,-76.3023,4.4303,1.5949
Glendale,AZ,Maricopa,33.5791,-112.2311,5.8997,2.1239
York,PA,York,39.9651,-76.7315,4.1694,1.501
Nashua,NH,Hillsborough,42.7491,-71.491,3.9001,1.404
Garland,TX,Dallas,32.91,-96.6304,4.7744,1.7188
Scottsdale,AZ,Maricopa,33.6872,-111.8651,5.8669,2.1121
Lafayette,LA,Lafayette,30.2082,-92.0325,4.6591,1.6773
Norfolk,VA,Norfolk,36.8945,-76.259,4.4303,1.5949
Arlington,VA,Arlington,38.8786,-77.1011,4.2275,1.5219
Appleton,WI,Outagamie,44.278,-88.3892,3.843,1.3835
Aguadilla,PR,Aguadilla,18.4382,-67.1537,5.7748,2.0789
Rock Hill,SC,York,34.9415,-81.0241,4.5789,1.6484
Fremont,CA,Alameda,37.5265,-121.9843,5.4264,1.9535
Fargo,ND,Cass,46.8651,-96.8292,4.0705,1.4654
Gulfport,MS,Harrison,30.4274,-89.0704,4.7195,1.699
Bremerton,WA,Kitsap,47.5436,-122.7121,3.6009,1.2963
Green Bay,WI,Brown,44.5148,-87.9895,3.718,1.3385
Enterprise,NV,Clark,36.0091,-115.2278,5.6517,2.0346
Hialeah,FL,Miami-Dade,25.8696,-80.3045,5.0915,1.8329
Deltona,FL,Volusia,28.905,-81.2137,4.9408,1.7787
San Bernardino,CA,San Bernardino,34.1416,-117.2943,5.8149,2.0934
Gainesville,FL,Alachua,29.6804,-82.3459,4.8675,1.7523
Spring Valley,NV,Clark,36.0952,-115.2636,5.6517,2.0346
Tacoma,WA,Pierce,47.2431,-122.4531,3.6009,1.2963
Roanoke,VA,Roanoke,37.2785,-79.9581,4.3419,1.5631
Brownsville,TX,Cameron,25.9975,-97.458,5.0072,1.8026
College Station,TX,Brazos,30.5852,-96.2959,4.8119,1.7323
Olympia,WA,Thurston,47.0417,-122.8959,3.6009,1.2963
Clarksville,TN,Montgomery,36.5692,-87.3413,4.3403,1.5625
Yonkers,NY,Westchester,40.9466,-73.8673,4.1004,1.4761
Moreno Valley,CA,Riverside,33.9244,-117.2045,5.4726,1.9701
Thousand Oaks,CA,Ventura,34.1914,-118.8756,5.6778,2.044
Portland,ME,Cumberland,43.6773,-70.2715,3.8342,1.3803
Fontana,CA,San Bernardino,34.0968,-117.4599,5.8149,2.0934
Hickory,NC,Catawba,35.741,-81.3223,4.5079,1.6228
Amarillo,TX,Potter,35.1984,-101.8316,5.3482,1.9254
Sioux Falls,SD,Minnehaha,43.5396,-96.7311,4.2722,1.538
Evansville,IN,Vanderburgh,37.9881,-87.5341,4.3002,1.5481
Huntington,WV,Cabell,38.4109,-82.4345,4.0571,1.4606
Waterbury,CT,Naugatuck Valley,41.5582,-73.0361,3.9479,1.4212
Frisco,TX,Collin,33.156,-96.8216,4.7418,1.707
Lorain,OH,Lorain,41.4409,-82.184,3.8516,1.3866
Kalamazoo,MI,Kalamazoo,42.2749,-85.5882,3.8138,1.373
Galveston,TX,Galveston,29.2484,-94.8913,4.7956,1.7264
Spartanburg,SC,Spartanburg,34.9442,-81.9251,4.5789,1.6484
Santa Barbara,CA,Santa Barbara,34.4285,-119.7202,5.5726,2.0061
Sunrise Manor,NV,Clark,36.1783,-115.0487,5.6517,2.0346
Huntington Beach,CA,Orange,33.696,-118.0018,5.1711,1.8616
Grand Prairie,TX,Dallas,32.6871,-97.0208,4.9167,1.77
Overland Park,KS,Johnson,38.887,-94.687,4.3755,1.5752
McKinney,TX,Collin,33.2016,-96.667,4.7418,1.707
Waco,TX,McLennan,31.5599,-97.1882,4.8957,1.7625
Hagerstown,MD,Washington,39.6401,-77.7217,4.0947,1.4741
Glendale,CA,Los Angeles,34.1819,-118.2468,5.6778,2.044
Nampa,ID,Canyon,43.5844,-116.5638,4.5942,1.6539
Peoria,AZ,Maricopa,33.7843,-112.2989,5.8997,2.1239
Cedar Rapids,IA,Linn,41.9662,-91.6783,4.1197,1.4831
Vancouver,WA,Clark,45.6366,-122.5967,3.8231,1.3763
Paradise,NV,Clark,36.0872,-115.1355,5.6517,2.0346
Ocala,FL,Marion,29.178,-82.1511,4.8675,1.7523
Erie,PA,Erie,42.1167,-80.0733,3.9065,1.4063
Newport News,VA,Newport News,37.1051,-76.5185,4.4078,1.5868
Frederick,MD,Frederick,39.4337,-77.4141,4.0947,1.4741
Murfreesboro,TN,Rutherford,35.849,-86.4121,4.4041,1.5855
Fort Lauderdale,FL,Broward,26.1412,-80.1464,4.9788,1.7924
Aurora,IL,Kane,41.7638,-88.2902,3.9776,1.4319
Tempe,AZ,Maricopa,33.3881,-111.9319,5.8669,2.1121
Danbury,CT,Western Connecticut,41.4015,-73.4709,3.9479,1.4212
Spring Hill,FL,Hernando,28.4798,-82.53,5.0641,1.8231
Gastonia,NC,Gaston,35.2494,-81.1854,4.5079,1.6228
Salinas,CA,Monterey,36.6883,-121.6317,5.3507,1.9263
Fredericksburg,VA,Fredericksburg,38.2992,-77.4872,4.2275,1.5219
Ontario,CA,San Bernardino,34.0393,-117.6064,5.8149,2.0934
Elk Grove,CA,Sacramento,38.4161,-121.3842,5.333,1.9199
Gainesville,GA,Hall,34.2902,-83.8294,4.5421,1.6352
Cary,NC,Wake,35.7819,-78.8195,4.5425,1.6353
Rancho Cucamonga,CA,San Bernardino,34.1247,-117.5667,5.8149,2.0934
Oceanside,CA,San Diego,33.2247,-117.3083,5.4726,1.9701
Garden Grove,CA,Orange,33.7787,-117.9601,5.4726,1.9701
Lancaster,CA,Los Angeles,34.6935,-118.1753,5.6778,2.044
Hemet,CA,Riverside,33.7341,-116.9969,5.8457,2.1045
Pembroke Pines,FL,Broward,26.0128,-80.3382,4.9788,1.7924
Panama City,FL,Bay,30.1995,-85.6003,4.7896,1.7243
Vallejo,CA,Solano,38.1125,-122.2342,5.268,1.8965
Manchester,NH,Hillsborough,42.9848,-71.4447,3.9001,1.404
Medford,OR,Jackson,42.3372,-122.854,4.6509,1.6743
Bayamón,PR,Bayamón,18.3794,-66.1635,5.5331,1.9919
Mauldin,SC,Greenville,34.7821,-82.3032,4.6288,1.6664
Santa Cruz,CA,Santa Cruz,36.9789,-122.0346,4.5952,1.6543
Palmdale,CA,Los Angeles,34.5944,-118.1057,5.6778,2.044
Norwich,CT,Southeastern Connecticut,41.5495,-72.0882,4.0035,1.4413
Muskegon,MI,Muskegon,43.2281,-86.2562,3.7807,1.3611
Leesburg,FL,Lake,28.7672,-81.8962,4.9408,1.7787
High Point,NC,Guilford,35.991,-79.9937,4.5281,1.6301
Tuscaloosa,AL,Tuscaloosa,33.2348,-87.5268,4.5827,1.6498
Visalia,CA,Tulare,36.3276,-119.3269,5.4624,1.9665
Marysville,WA,Snohomish,48.0809,-122.1561,3.6569,1.3165
Merced,CA,Merced,37.3057,-120.4779,5.3991,1.9437
Hayward,CA,Alameda,37.6328,-122.0766,4.8794,1.7566
Lafayette,IN,Tippecanoe,40.3991,-86.8593,4.0341,1.4523
Springfield,IL,Sangamon,39.7709,-89.654,4.1909,1.5087
Corona,CA,Riverside,33.8616,-117.5649,5.4726,1.9701
Paterson,NJ,Passaic,40.9147,-74.1624,4.0175,1.4463
Alexandria,VA,Alexandria,38.8185,-77.0861,4.2275,1.5219
Macon,GA,Bibb,32.8065,-83.6974,4.6742,1.6827
Binghamton,NY,Broome,42.1014,-75.9093,3.7195,1.339
Lakewood,CO,Jefferson,39.6977,-105.1172,4.83,1.7388
Kansas City,KS,Wyandotte,39.1235,-94.7443,4.3191,1.5549
Odessa,TX,Ector,31.8801,-102.3448,5.6935,2.0497
Sunnyvale,CA,Santa Clara,37.3836,-122.0255,4.8794,1.7566
New Bedford,MA,Bristol,41.6697,-70.9428,4.0126,1.4445
Hollywood,FL,Broward,26.0293,-80.1679,4.9788,1.7924
South Lyon,MI,Oakland,42.4614,-83.6526,3.8465,1.3847
Escondido,CA,San Diego,33.1348,-117.0723,5.4726,1.9701
Lake Charles,LA,Calcasieu,30.201,-93.2111,4.6124,1.6605
Pasadena,TX,Harris,29.6575,-95.1498,4.7376,1.7055
Bellevue,WA,King,47.5951,-122.1535,3.6009,1.2963
Joliet,IL,Will,41.5188,-88.1499,3.9776,1.4319
Champaign,IL,Champaign,40.1142,-88.2737,4.0565,1.4603
Pomona,CA,Los Angeles,34.0585,-117.7626,5.8149,2.0934
Fairfield,CA,Solano,38.2583,-122.0335,5.268,1.8965
Mesquite,TX,Dallas,32.7602,-96.5865,4.7744,1.7188
Elkhart,IN,Elkhart,41.6916,-85.9627,3.8924,1.4013
Naperville,IL,DuPage,41.748,-88.1659,3.9776,1.4319
St. George,UT,Washington,37.0758,-113.5752,5.4492,1.9617
Roseville,CA,Placer,38.7703,-121.3196,5.333,1.9199
Topeka,KS,Shawnee,39.0346,-95.6955,4.3906,1.5806
Burlington,NC,Alamance,36.076,-79.4685,4.4481,1.6013
Warner Robins,GA,Houston,32.5961,-83.6527,4.6742,1.6827
Surprise,AZ,Maricopa,33.6815,-112.4515,5.8997,2.1239
Torrance,CA,Los Angeles,33.8346,-118.3416,5.1711,1.8616
Santa Maria,CA,Santa Barbara,34.9333,-120.4431,5.1871,1.8674
Athens,GA,Clarke,33.9508,-83.3689,4.5944,1.654
Houma,LA,Terrebonne,29.58,-90.7059,4.7256,1.7012
Columbia,MO,Boone,38.9472,-92.3268,4.3139,1.553
Fullerton,CA,Orange,33.8841,-117.9279,5.4726,1.9701
Olathe,KS,Johnson,38.8833,-94.82,4.3755,1.5752
Thornton,CO,Adams,39.9197,-104.9438,4.9126,1.7685
Greeley,CO,Weld,40.4152,-104.7706,4.8031,1.7291
Beaumont,TX,Jefferson,30.0849,-94.1451,4.6433,1.6716
Las Cruces,NM,Doña Ana,32.3265,-106.7893,5.7403,2.0665
Midland,TX,Midland,32.0243,-102.1147,5.6974,2.0511
Metairie,LA,Jefferson,29.9977,-90.178,4.7256,1.7012
Carolina,PR,Carolina,18.4054,-65.9792,5.6973,2.051
West Valley City,UT,Salt Lake,40.6886,-112.0123,4.92,1.7712
Orange,CA,Orange,33.8038,-117.8218,5.4726,1.9701
Warren,MI,Macomb,42.4934,-83.027,3.8465,1.3847
Grand Junction,CO,Mesa,39.0877,-108.5673,5.1368,1.8492
Tyler,TX,Smith,32.3184,-95.3062,4.6699,1.6812
Pasadena,CA,Los Angeles,34.1597,-118.139,5.6778,2.044
Hampton,VA,Hampton,37.0551,-76.363,4.4078,1.5868
Bloomington,IL,McLean,40.4757,-88.9703,4.0565,1.4603
Elizabeth,NJ,Union,40.6658,-74.1913,4.0175,1.4463
Stamford,CT,Western Connecticut,41.1039,-73.5585,3.9479,1.4212
Yuma,AZ,Yuma,32.5995,-114.5491,5.9943,2.1579
Kent,WA,King,47.3887,-122.2128,3.6009,1.2963
Miramar,FL,Broward,25.9773,-80.3351,5.0915,1.8329
Coeur d'Alene,ID,Kootenai,47.704,-116.7936,3.8932,1.4016
Coral Springs,FL,Broward,26.2702,-80.2591,4.9788,1.7924
Sterling Heights,MI,Macomb,42.5809,-83.0305,3.8465,1.3847
Yuba City,CA,Sutter,39.1357,-121.6383,5.2126,1.8765
Yakima,WA,Yakima,46.5923,-120.5496,4.1419,1.4911
Carrollton,TX,Dallas,32.989,-96.8999,4.7744,1.7188
Racine,WI,Racine,42.7274,-87.8135,3.7545,1.3516
Johnson City,TN,Washington,36.3406,-82.3806,4.3252,1.5571
Billings,MT,Yellowstone,45.7891,-108.5526,4.1767,1.5036
Iowa City,IA,Johnson,41.6559,-91.5303,4.1197,1.4831
Dover,DE,Kent,39.161,-75.5202,4.1793,1.5045
Bellingham,WA,Whatcom,48.7548,-122.469,3.6569,1.3165
Charleston,WV,Kanawha,38.3484,-81.6322,4.0256,1.4492
Lynchburg,VA,Lynchburg,37.4003,-79.1909,4.3419,1.5631
Santa Clara,CA,Santa Clara,37.3646,-121.968,5.4264,1.9535
Norman,OK,Cleveland,35.2335,-97.3471,4.8256,1.7372
Greenville,NC,Pitt,35.5943,-77.376,4.5289,1.6304
Simi Valley,CA,Ventura,34.2663,-118.749,5.6778,2.044
Fort Smith,AR,Sebastian,35.3495,-94.3695,4.5001,1.62
Abilene,TX,Taylor,32.4543,-99.7384,5.2119,1.8763
Arecibo,PR,Arecibo,18.4491,-66.7387,5.5331,1.9919
Lewisville,TX,Denton,33.0454,-96.9815,4.7418,1.707
Pearland,TX,Brazoria,29.5581,-95.3218,4.7376,1.7055
Lehigh Acres,FL,Lee,26.612,-81.6388,5.1341,1.8483
Kenosha,WI,Kenosha,42.5865,-87.8773,3.7545,1.3516
Seaside,CA,Monterey,36.6224,-121.8199,5.3507,1.9263
Burlington,VT,Chittenden,44.4876,-73.2316,3.5756,1.2872
Arvada,CO,Jefferson,39.832,-105.151,4.83,1.7388
Waldorf,MD,Charles,38.6085,-76.9194,4.345,1.5642
Independence,MO,Jackson,39.0871,-94.3501,4.3191,1.5549
Rochester,MN,Olmsted,44.0154,-92.478,3.9651,1.4274
Logan,UT,Cache,41.7399,-111.8422,4.8707,1.7535
Harlingen,TX,Cameron,26.1916,-97.6977,4.9024,1.7649
Berkeley,CA,Alameda,37.8722,-122.276,4.8794,1.7566
Clovis,CA,Fresno,36.8278,-119.683,5.4624,1.9665
Round Rock,TX,Williamson,30.527,-97.6642,4.9071,1.7666
Pueblo,CO,Pueblo,38.2701,-104.6114,5.0743,1.8267
Temple,TX,Bell,31.1068,-97.3891,4.8957,1.7625
Meridian,ID,Ada,43.6116,-116.3977,4.5942,1.6539
Duluth,MN,St. Louis,46.7756,-92.1393,3.837,1.3813
The Woodlands,TX,Montgomery,30.1738,-95.5134,4.7151,1.6974
Boulder,CO,Boulder,40.0248,-105.2524,4.7164,1.6979
Richardson,TX,Dallas,32.9716,-96.7093,4.7744,1.7188
Cambridge,MA,Middlesex,42.3759,-71.1185,3.9001,1.404
West Palm Beach,FL,Palm Beach,26.7469,-80.132,4.9788,1.7924
Port Arthur,TX,Jefferson,29.8554,-93.9264,4.8263,1.7375
East Los Angeles,CA,Los Angeles,34.0326,-118.1691,5.6778,2.044
Redding,CA,Shasta,40.5698,-122.365,5.0348,1.8125
Clearwater,FL,Pinellas,27.979,-82.7623,5.2308,1.8831
Monroe,LA,Ouachita,32.5185,-92.0774,4.6017,1.6566
Utica,NY,Oneida,43.0962,-75.2261,3.6217,1.3038
St. Cloud,MN,Stearns,45.534,-94.1718,4.0474,1.4571
Mandeville,LA,St. Tammany,30.3751,-90.0904,4.6605,1.6778
West Jordan,UT,Salt Lake,40.6024,-112.0008,4.92,1.7712
North Charleston,SC,Charleston,32.9067,-80.0722,4.7988,1.7276
Richmond,CA,Contra Costa,37.9477,-122.3389,4.8794,1.7566
Westminster,CO,Adams,39.8837,-105.0624,4.83,1.7388
Saginaw,MI,Saginaw,43.4199,-83.9501,3.7992,1.3677
Kailua,HI,Honolulu,21.392,-157.7396,5.8149,2.0934
Brandon,FL,Hillsborough,27.9367,-82.3,5.2308,1.8831
Ponce,PR,Ponce,18.0127,-66.6212,5.5331,1.9919
Carlsbad,CA,San Diego,33.1246,-117.2834,5.4726,1.9701
Lowell,MA,Middlesex,42.6389,-71.3217,3.9001,1.404
Broken Arrow,OK,Tulsa,36.038,-95.7806,4.5563,1.6403
Elgin,IL,Kane,42.0383,-88.324,3.9446,1.4201
Gresham,OR,Multnomah,45.5021,-122.4413,3.8231,1.3763
League City,TX,Galveston,29.4874,-95.1087,4.7376,1.7055
Downey,CA,Los Angeles,33.9379,-118.1311,5.1711,1.8616
Waterloo,IA,Black Hawk,42.4918,-92.3522,4.1215,1.4837
Murrieta,CA,Riverside,33.5719,-117.1909,5.4726,1.9701
Leominster,MA,Worcester,42.5209,-71.7717,3.9001,1.404
Longview,TX,Gregg,32.5193,-94.7622,4.6152,1.6615
Jacksonville,NC,Onslow,34.7289,-77.3941,4.641,1.6708
Pompano Beach,FL,Broward,26.2428,-80.1312,4.9788,1.7924
Bend,OR,Deschutes,44.0563,-121.3095,4.3402,1.5625
Miami Gardens,FL,Miami-Dade,25.9433,-80.2426,5.0915,1.8329
Costa Mesa,CA,Orange,33.6667,-117.9135,5.4726,1.9701
Sioux City,IA,Woodbury,42.4959,-96.3901,4.2944,1.546
Everett,WA,Snohomish,47.9525,-122.1669,3.6009,1.2963
Gilroy,CA,Santa Clara,37.0046,-121.5854,5.4264,1.9535
San Buenaventura,CA,Ventura,34.2741,-119.2314,5.5726,2.0061
Temecula,CA,Riverside,33.4928,-117.1315,5.4726,1.9701
Sugar Land,TX,Fort Bend,29.5935,-95.6358,4.7376,1.7055
Chico,CA,Butte,39.7578,-121.8161,5.2126,1.8765
Eau Claire,WI,Eau Claire,44.8197,-91.4948,3.9511,1.4224
El Monte,CA,Los Angeles,34.0739,-118.0291,5.6778,2.044
Idaho Falls,ID,Bonneville,43.4871,-112.0362,4.5833,1.65
Dearborn,MI,Wayne,42.3127,-83.213,3.8465,1.3847
Bloomington,IN,Monroe,39.1637,-86.5257,4.0917,1.473
West Covina,CA,Los Angeles,34.0555,-117.9113,5.8149,2.0934
Sparks,NV,Washoe,39.5736,-119.7161,5.2929,1.9054
South Fulton,GA,Fulton,33.6273,-84.58,4.5579,1.6408
Centennial,CO,Arapahoe,39.5926,-104.8673,4.9126,1.7685
Sandy Springs,GA,Fulton,33.9366,-84.3703,4.5579,1.6408
Inglewood,CA,Los Angeles,33.9566,-118.3444,5.1711,1.8616
Hillsboro,OR,Washington,45.5273,-122.936,3.8231,1.3763
Columbia,MD,Howard,39.2004,-76.859,4.1694,1.501
Burbank,CA,Los Angeles,34.1879,-118.3235,5.6778,2.044
Davie,FL,Broward,26.0789,-80.287,4.9788,1.7924
El Cajon,CA,San Diego,32.8017,-116.9604,5.8447,2.1041
Jurupa Valley,CA,Riverside,34.001,-117.4706,5.8149,2.0934
Allen,TX,Collin,33.1088,-96.6735,4.7418,1.707
Auburn,AL,Lee,32.6087,-85.4903,4.6596,1.6775
Renton,WA,King,47.4784,-122.1918,3.6009,1.2963
Holland,MI,Ottawa,42.7677,-86.0984,3.816,1.3738
Brockton,MA,Plymouth,42.0821,-71.0242,3.9001,1.404
Rio Rancho,NM,Sandoval,35.2873,-106.6982,5.5494,1.9978
San Mateo,CA,San Mateo,37.5522,-122.3121,4.8794,1.7566
Rialto,CA,San Bernardino,34.1175,-117.3892,5.8149,2.0934
Spokane Valley,WA,Spokane,47.6626,-117.2346,3.8932,1.4016
Charlottesville,VA,Charlottesville,38.0375,-78.4855,4.2406,1.5266
Menifee,CA,Riverside,33.6909,-117.1849,5.4726,1.9701
Daly City,CA,San Mateo,37.6862,-122.4685,4.8794,1.7566
Wichita Falls,TX,Wichita,33.9072,-98.5291,5.0797,1.8287
Riverview,FL,Hillsborough,27.8227,-82.3023,5.2308,1.8831
Norwalk,CA,Los Angeles,33.9069,-118.0829,5.1711,1.8616
Lee's Summit,MO,Jackson,38.9171,-94.3816,4.3755,1.5752
Longmont,CO,Boulder,40.1686,-105.1005,4.7164,1.6979
Vacaville,CA,Solano,38.3587,-121.9673,5.333,1.9199
Highlands Ranch,CO,Douglas,39.5419,-104.9708,4.9126,1.7685
Kingsport,TN,Sullivan,36.5224,-82.5454,4.3252,1.5571
San Tan Valley,AZ,Pinal,33.1786,-111.5629,5.8669,2.1121
Quincy,MA,Norfolk,42.2506,-71.0187,3.9001,1.404
Edinburg,TX,Hidalgo,26.3196,-98.1597,5.1452,1.8523
Lynn,MA,Essex,42.4781,-70.9664,3.925,1.413
San Angelo,TX,Tom Green,31.4424,-100.4504,5.3549,1.9278
Hesperia,CA,San Bernardino,34.3975,-117.3147,5.8149,2.0934
Bowling Green,KY,Warren,36.9716,-86.4378,4.3173,1.5542
Federal Way,WA,King,47.3091,-122.3358,3.6009,1.2963
Carmel,IN,Hamilton,39.965,-86.146,4.0917,1.473
Bismarck,ND,Burleigh,46.8143,-100.7694,4.1541,1.4955
Fishers,IN,Hamilton,39.9588,-85.9659,4.0934,1.4736
Lafayette,CO,Boulder,39.9946,-105.0998,4.83,1.7388
Vista,CA,San Diego,33.1896,-117.2386,5.4726,1.9701
Boca Raton,FL,Palm Beach,26.3752,-80.108,4.9788,1.7924
St. Augustine,FL,St. Johns,29.8976,-81.31,4.792,1.7251
Beaverton,OR,Washington,45.4779,-122.8168,3.8231,1.3763
Goodyear,AZ,Maricopa,33.2614,-112.3622,5.8997,2.1239
Portsmouth,VA,Portsmouth,36.8468,-76.354,4.4303,1.5949
Orem,UT,Utah,40.2981,-111.6994,4.923,1.7723
Sunrise,FL,Broward,26.1547,-80.2997,4.9788,1.7924
Portsmouth,NH,Rockingham,43.058,-70.7826,3.8342,1.3803
Arden-Arcade,CA,Sacramento,38.6017,-121.3845,5.333,1.9199
Lawrence,KS,Douglas,38.9597,-95.2642,4.4541,1.6035
Sandy,UT,Salt Lake,40.5709,-111.8506,4.923,1.7723
Slidell,LA,St. Tammany,30.2887,-89.7828,4.7195,1.699
Buckeye,AZ,Maricopa,33.4314,-112.6429,5.8997,2.1239
Livonia,MI,Wayne,42.3972,-83.3733,3.8465,1.3847
Williamsburg,VA,Williamsburg,37.2693,-76.7076,4.4078,1.5868
Suffolk,VA,Suffolk,36.6953,-76.6398,4.4303,1.5949
Compton,CA,Los Angeles,33.893,-118.2274,5.1711,1.8616
La Crosse,WI,La Crosse,43.8241,-91.2268,3.9671,1.4282
Edmond,OK,Oklahoma,35.6689,-97.416,4.8256,1.7372
Carson,CA,Los Angeles,33.8374,-118.2559,5.1711,1.8616
San Marcos,CA,San Diego,33.135,-117.1743,5.4726,1.9701
Tracy,CA,San Joaquin,37.7269,-121.4523,5.4264,1.9535
Prescott Valley,AZ,Yavapai,34.598,-112.3185,5.7716,2.0778
Middletown,OH,Butler,39.5033,-84.3659,4.0729,1.4662
Fall River,MA,Bristol,41.7136,-71.1015,4.1025,1.4769
San Germán,PR,San Germán,18.0827,-67.046,5.7748,2.0789
Santa Fe,NM,Santa Fe,35.6619,-105.9819,5.4714,1.9697
Plantation,FL,Broward,26.1259,-80.2617,4.9788,1.7924
Mayagüez,PR,Mayagüez,18.2003,-67.1397,5.7748,2.0789
New Braunfels,TX,Comal,29.6994,-98.1148,4.952,1.7827
Roswell,GA,Fulton,34.0391,-84.3513,4.4818,1.6134
Conroe,TX,Montgomery,30.3238,-95.4824,4.7151,1.6974
South Gate,CA,Los Angeles,33.9447,-118.1926,5.1711,1.8616
Santa Monica,CA,Los Angeles,34.0235,-118.481,5.6778,2.044
Kirkland,WA,King,47.697,-122.2057,3.6009,1.2963
Hoover,AL,Jefferson,33.3763,-86.8068,4.5741,1.6467
O'Fallon,MO,St. Charles,38.785,-90.7175,4.2585,1.5331
Alafaya,FL,Orange,28.528,-81.1868,4.9408,1.7787
Palm Coast,FL,Flagler,29.5389,-81.2457,4.792,1.7251
Norwalk,CT,Western Connecticut,41.1144,-73.4215,3.9479,1.4212
Lawton,OK,Comanche,34.6175,-98.4202,5.0453,1.8163
Chino,CA,San Bernardino,33.9836,-117.6654,5.4726,1.9701
Mount Pleasant,SC,Charleston,32.8537,-79.8203,4.7535,1.7113
Manteca,CA,San Joaquin,37.7927,-121.2264,5.4264,1.9535
Westminster,CA,Orange,33.7523,-117.9938,5.4726,1.9701
Florence,SC,Florence,34.178,-79.7898,4.5809,1.6491
Joplin,MO,Jasper,37.0757,-94.5018,4.4631,1.6067
Germantown,MD,Montgomery,39.1755,-77.2643,4.0947,1.4741
San Leandro,CA,Alameda,37.7074,-122.1599,4.8794,1.7566
Town 'n' Country,FL,Hillsborough,28.0106,-82.5763,5.0641,1.8231
Clifton,NJ,Passaic,40.863,-74.1575,4.0175,1.4463
Waukegan,IL,Lake,42.3698,-87.8716,3.7545,1.3516
Bloomington,MN,Hennepin,44.8306,-93.3151,3.9987,1.4395
Avondale,AZ,Maricopa,33.3873,-112.3235,5.8997,2.1239
Atascocita,TX,Harris,29.9777,-95.1953,4.7376,1.7055
Missoula,MT,Missoula,46.8751,-114.0214,3.8472,1.385
Fort Myers,FL,Lee,26.6194,-81.8302,5.1341,1.8483
Newton,MA,Middlesex,42.3316,-71.2085,3.9001,1.404
Lawrence,MA,Essex,42.7002,-71.1626,3.9001,1.404
Muncie,IN,Delaware,40.1989,-85.395,4.0317,1.4514
Rapid City,SD,Pennington,44.0716,-103.2204,4.3233,1.5564
Troy,MI,Oakland,42.5817,-83.1457,3.8465,1.3847
Livermore,CA,Alameda,37.6868,-121.7607,5.4264,1.9535
Citrus Heights,CA,Sacramento,38.6948,-121.288,5.333,1.9199
Hawthorne,CA,Los Angeles,33.9147,-118.3476,5.1711,1.8616
Winchester,VA,Winchester,39.1735,-78.1746,4.0145,1.4452
Springdale,AR,Washington,36.1901,-94.1574,4.5144,1.6252
Whittier,CA,Los Angeles,33.9678,-118.0188,5.1711,1.8616
Deerfield Beach,FL,Broward,26.305,-80.1277,4.9788,1.7924
Decatur,IL,Macon,39.8557,-88.9342,4.1505,1.4942
San Ramon,CA,Contra Costa,37.7624,-121.9365,5.4264,1.9535
Vineland,NJ,Cumberland,39.4653,-74.9981,4.1491,1.4937
Mission,TX,Hidalgo,26.2039,-98.3256,5.1452,1.8523
Auburn,WA,King,47.3039,-122.2108,3.6009,1.2963
Lake Forest,CA,Orange,33.6605,-117.6714,5.4726,1.9701
Newport Beach,CA,Orange,33.6151,-117.8668,5.4726,1.9701
Melbourne,FL,Brevard,28.1086,-80.6627,4.92,1.7712
Brooklyn Park,MN,Hennepin,45.1112,-93.3505,3.9347,1.4165
Bryan,TX,Brazos,30.665,-96.3807,4.8119,1.7323
Westland,MI,Wayne,42.3192,-83.3805,3.8465,1.3847
Napa,CA,Napa,38.2975,-122.301,5.268,1.8965
Baytown,TX,Harris,29.7587,-94.9671,4.7956,1.7264
Cicero,IL,Cook,41.8445,-87.7593,3.9205,1.4114
Anderson,IN,Madison,40.0891,-85.6892,4.0317,1.4514
Franklin,TN,Williamson,35.92,-86.8516,4.4041,1.5855
Farmington Hills,MI,Oakland,42.486,-83.3771,3.8465,1.3847
Buena Park,CA,Orange,33.8572,-118.0046,5.1711,1.8616
Albany,GA,Dougherty,31.5776,-84.1762,4.7844,1.7224
Pine Hills,FL,Orange,28.5818,-81.4692,4.9408,1.7787
State College,PA,Centre,40.7909,-77.8567,3.9053,1.4059
Redwood City,CA,San Mateo,37.5025,-122.2253,4.8794,1.7566
Warwick,RI,Kent,41.7062,-71.4334,4.1025,1.4769
Jackson,MI,Jackson,42.2431,-84.4038,3.8391,1.3821
Cranston,RI,Providence,41.7658,-71.4858,4.1025,1.4769
Largo,FL,Pinellas,27.9088,-82.7712,5.2308,1.8831
Miami Beach,FL,Miami-Dade,25.8171,-80.1396,5.0915,1.8329
Alhambra,CA,Los Angeles,34.084,-118.1355,5.6778,2.044
Johns Creek,GA,Fulton,34.0333,-84.2027,4.4818,1.6134
Mountain View,CA,Santa Clara,37.4001,-122.0796,4.8794,1.7566
Salisbury,MD,Wicomico,38.3756,-75.5865,4.3208,1.5555
Morgantown,WV,Monongalia,39.6383,-79.9464,3.904,1.4054
Silver Spring,MD,Montgomery,39.0028,-77.0207,4.0947,1.4741
Layton,UT,Davis,41.077,-111.962,4.8707,1.7535
Springfield,OH,Clark,39.93,-83.7959,4.0606,1.4618
Lakewood,CA,Los Angeles,33.8471,-118.1222,5.1711,1.8616
Florence,AL,Lauderdale,34.8303,-87.6655,4.4965,1.6187
Folsom,CA,Sacramento,38.6668,-121.1422,5.333,1.9199
Madera,CA,Madera,36.963,-120.0778,5.5539,1.9994
New Rochelle,NY,Westchester,40.9304,-73.7836,4.1004,1.4761
Parma,OH,Cuyahoga,41.3843,-81.7286,3.775,1.359
Terre Haute,IN,Vigo,39.466,-87.3751,4.1231,1.4843
Somerville,MA,Middlesex,42.3908,-71.1014,3.9001,1.404
Flagstaff,AZ,Coconino,35.1872,-111.6194,5.6678,2.0404
Boynton Beach,FL,Palm Beach,26.5281,-80.0811,4.9788,1.7924
Homestead,FL,Miami-Dade,25.4665,-80.4472,5.0915,1.8329
Newark,OH,Licking,40.0706,-82.425,3.9529,1.423
Plymouth,MN,Hennepin,45.0225,-93.4617,3.9347,1.4165
Anniston,AL,Calhoun,33.6712,-85.8135,4.5674,1.6443
Texarkana,TX,Bowie,33.45,-94.0847,4.5578,1.6408
Tustin,CA,Orange,33.7311,-117.8107,5.4726,1.9701
Pharr,TX,Hidalgo,26.1685,-98.1904,5.1452,1.8523
Port Huron,MI,St. Clair,42.9821,-82.4388,3.9174,1.4103
Turlock,CA,Stanislaus,37.5053,-120.8588,5.3991,1.9437
Rancho Cordova,CA,Sacramento,38.5737,-121.2527,5.333,1.9199
The Villages,FL,Sumter,28.9034,-81.9887,4.9408,1.7787
Milpitas,CA,Santa Clara,37.4336,-121.8921,5.4264,1.9535
Perris,CA,Riverside,33.7898,-117.2233,5.4726,1.9701
Upland,CA,San Bernardino,34.1178,-117.6604,5.8149,2.0934
Alton,IL,Madison,38.9037,-90.152,4.2585,1.5331
Pleasanton,CA,Alameda,37.6663,-121.8805,5.4264,1.9535
Kendall,FL,Miami-Dade,25.6697,-80.3556,5.0915,1.8329
Jonesboro,AR,Craighead,35.8212,-90.6791,4.5105,1.6238
Bellflower,CA,Los Angeles,33.888,-118.1271,5.1711,1.8616
Battle Creek,MI,Calhoun,42.2985,-85.2296,3.8138,1.373
Chino Hills,CA,San Bernardino,33.9508,-117.7254,5.4726,1.9701
Cheyenne,WY,Laramie,41.135,-104.7902,4.6704,1.6813
Lebanon,PA,Lebanon,40.3412,-76.4228,3.9593,1.4253
Carmichael,CA,Sacramento,38.6318,-121.3263,5.333,1.9199
South Jordan,UT,Salt Lake,40.557,-111.9784,4.923,1.7723
Davis,CA,Yolo,38.5553,-121.737,5.333,1.9199
Elizabethtown,KY,Hardin,37.7031,-85.8773,4.2414,1.5269
Schaumburg,IL,Cook,42.0308,-88.0838,3.9446,1.4201
Alameda,CA,Alameda,37.7668,-122.267,4.8794,1.7566
Hammond,IN,Lake,41.6168,-87.4909,3.9205,1.4114
Pasco,WA,Franklin,46.2506,-119.1305,4.2752,1.5391
Evanston,IL,Cook,42.0464,-87.6943,3.7545,1.3516
Lehi,UT,Utah,40.4136,-111.8725,4.923,1.7723
Alexandria,LA,Rapides,31.2923,-92.4702,4.6122,1.6604
North Port,FL,Sarasota,27.0576,-82.1977,5.2308,1.8831
Arlington Heights,IL,Cook,42.0955,-87.9826,3.7545,1.3516
Camarillo,CA,Ventura,34.223,-119.0321,5.5726,2.0061
Wyoming,MI,Kent,42.8908,-85.7066,3.8138,1.373
Flower Mound,TX,Denton,33.0343,-97.1146,4.8974,1.7631
Bethlehem,PA,Northampton,40.6266,-75.3679,3.9492,1.4217
Hattiesburg,MS,Forrest,31.3074,-89.317,4.6494,1.6738
Loveland,CO,Larimer,40.4166,-105.0623,4.7164,1.6979
Pittsburg,CA,Contra Costa,38.0182,-121.8965,5.333,1.9199
Cedar Park,TX,Williamson,30.5105,-97.8197,4.9071,1.7666
Wenatchee,WA,Chelan,47.436,-120.3295,3.8461,1.3846
Southfield,MI,Oakland,42.4765,-83.2605,3.8465,1.3847
Rochester Hills,MI,Oakland,42.6645,-83.1563,3.8465,1.3847
Hammond,LA,Tangipahoa,30.5061,-90.4563,4.6605,1.6778
Valdosta,GA,Lowndes,30.8502,-83.2788,4.8042,1.7295
Owensboro,KY,Daviess,37.7575,-87.1172,4.3002,1.5481
Apple Valley,CA,San Bernardino,34.5352,-117.2109,5.8149,2.0934
Woodbury,MN,Washington,44.9057,-92.923,3.9651,1.4274
Pawtucket,RI,Providence,41.8744,-71.3743,4.1025,1.4769
St. Joseph,MO,Buchanan,39.7598,-94.821,4.3191,1.5549
Doral,FL,Miami-Dade,25.8152,-80.3565,5.0915,1.8329
Dover,NH,Strafford,43.1887,-70.8845,3.8342,1.3803
Missouri City,TX,Fort Bend,29.563,-95.5365,4.7376,1.7055
Saratoga Springs,NY,Saratoga,43.0674,-73.7775,3.6925,1.3293
Pocatello,ID,Bannock,42.8724,-112.4647,4.5998,1.6559
Oshkosh,WI,Winnebago,44.0227,-88.5619,3.843,1.3835
New Britain,CT,Capitol,41.6759,-72.7862,4.0035,1.4413
Castle Rock,CO,Douglas,39.3763,-104.8535,4.9126,1.7685
Lauderhill,FL,Broward,26.1605,-80.2241,4.9788,1.7924
Broomfield,CO,Broomfield,39.9542,-105.0526,4.83,1.7388
Dale City,VA,Prince William,38.6473,-77.3459,4.2275,1.5219
Bolingbrook,IL,Will,41.6901,-88.1021,3.9776,1.4319
Redmond,WA,King,47.6763,-122.1169,3.6009,1.2963
Caguas,PR,Caguas,18.2319,-66.0388,5.5331,1.9919
Mansfield,TX,Tarrant,32.569,-97.1213,4.9167,1.77
Ellicott City,MD,Howard,39.2774,-76.8345,4.1694,1.501
Sheboygan,WI,Sheboygan,43.7403,-87.7316,3.7251,1.341
Mansfield,OH,Richland,40.7656,-82.5275,3.9529,1.423
Glens Falls,NY,Warren,43.3109,-73.6458,3.6925,1.3293
Daytona Beach,FL,Volusia,29.1995,-81.0982,4.792,1.7251
Lodi,CA,San Joaquin,38.1218,-121.2932,5.333,1.9199
Redlands,CA,San Bernardino,34.0512,-117.1712,5.8149,2.0934
Harrisonburg,VA,Harrisonburg,38.4362,-78.8735,4.2406,1.5266
Dothan,AL,Houston,31.2336,-85.407,4.7502,1.7101
Cleveland,TN,Bradley,35.1817,-84.8707,4.3995,1.5838
Jackson,TN,Madison,35.6538,-88.8354,4.4302,1.5949
Mount Vernon,NY,Westchester,40.9136,-73.8291,4.1004,1.4761
Centreville,VA,Fairfax,38.839,-77.4389,4.2275,1.5219
Altoona,PA,Blair,40.5082,-78.4007,3.8148,1.3733
Framingham,MA,Middlesex,42.3085,-71.4368,3.9001,1.404
Camden,NJ,Camden,39.9361,-75.1073,4.1793,1.5045
Georgetown,TX,Williamson,30.666,-97.6966,4.9071,1.7666
Baldwin Park,CA,Los Angeles,34.0829,-117.9722,5.8149,2.0934
Rocklin,CA,Placer,38.8075,-121.2489,5.333,1.9199
Porterville,CA,Tulare,36.0643,-119.0338,5.4624,1.9665
Tamarac,FL,Broward,26.2056,-80.2539,4.9788,1.7924
Glen Burnie,MD,Anne Arundel,39.156,-76.6071,4.1694,1.501
Blacksburg,VA,Montgomery,37.23,-80.4279,4.2238,1.5206
Wausau,WI,Marathon,44.962,-89.6459,3.8678,1.3924
Sumter,SC,Sumter,33.9392,-80.393,4.6488,1.6736
Janesville,WI,Rock,42.6854,-89.0135,3.984,1.4342
Brunswick,GA,Glynn,31.1449,-81.4746,4.72,1.6992
Dublin,CA,Alameda,37.7161,-121.8963,5.4264,1.9535
Wilmington,DE,New Castle,39.7415,-75.5416,4.1793,1.5045
Waukesha,WI,Waukesha,43.0087,-88.2464,3.9025,1.4049
Fairbanks,AK,Fairbanks North Star,64.8353,-147.6533,2.6232,0.9444
Lakeville,MN,Dakota,44.6774,-93.252,3.9987,1.4395
St. Charles,MO,St. Charles,38.7954,-90.5157,4.2585,1.5331
Redondo Beach,CA,Los Angeles,33.8577,-118.3765,5.1711,1.8616
Spring Hill,TN,Maury,35.7437,-86.9116,4.4041,1.5855
Bayonne,NJ,Hudson,40.6668,-74.1158,4.0175,1.4463
Grand Forks,ND,Grand Forks,47.9214,-97.0884,3.9789,1.4324
Noblesville,IN,Hamilton,40.0355,-86.0042,4.0341,1.4523
Guaynabo,PR,Guaynabo,18.3832,-66.1134,5.5331,1.9919
El Paso de Robles,CA,San Luis Obispo,35.6394,-120.656,5.5928,2.0134
North Richland Hills,TX,Tarrant,32.8604,-97.218,4.9167,1.77
Maple Grove,MN,Hennepin,45.1089,-93.4626,3.9347,1.4165
Passaic,NJ,Passaic,40.8574,-74.1282,4.0175,1.4463
Blaine,MN,Anoka,45.1696,-93.2077,3.9347,1.4165
Lake Elsinore,CA,Riverside,33.6847,-117.3344,5.4726,1.9701
Rogers,AR,Benton,36.317,-94.1531,4.5144,1.6252
Casas Adobes,AZ,Pima,32.3423,-111.0113,5.9351,2.1366
Sherman,TX,Grayson,33.6273,-96.6221,4.7418,1.707
Walnut Creek,CA,Contra Costa,37.9024,-122.0399,4.8794,1.7566
Conway,AR,Faulkner,35.0753,-92.4692,4.4292,1.5945
Eastvale,CA,Riverside,33.9617,-117.5803,5.4726,1.9701
Union City,CA,Alameda,37.6032,-122.0181,4.8794,1.7566
Michigan City,IN,LaPorte,41.7092,-86.869,3.8863,1.3991
Poinciana,FL,Polk,28.1217,-81.4821,4.9408,1.7787
Tulare,CA,Tulare,36.1995,-119.34,5.4624,1.9665
Gary,IN,Lake,41.5905,-87.3473,3.9205,1.4114
Gaithersburg,MD,Montgomery,39.1346,-77.2131,4.0947,1.4741
East Orange,NJ,Essex,40.7651,-74.2117,4.0175,1.4463
Wesley Chapel,FL,Pasco,28.2106,-82.3238,5.0641,1.8231
West Des Moines,IA,Polk,41.5521,-93.7806,4.2286,1.5223
Dalton,GA,Whitfield,34.769,-84.972,4.4818,1.6134
Dubuque,IA,Dubuque,42.5002,-90.707,4.0028,1.441
Schenectady,NY,Schenectady,42.8025,-73.9275,3.8074,1.3707
Ankeny,IA,Polk,41.7288,-93.6031,4.2286,1.5223
Maricopa,AZ,Pinal,33.0408,-112.0011,5.8997,2.1239
Eagan,MN,Dakota,44.817,-93.1638,3.9987,1.4395
Hanford,CA,Kings,36.3274,-119.6549,5.4624,1.9665
Bristol,TN,Sullivan,36.5572,-82.2154,4.3252,1.5571
Yorba Linda,CA,Orange,33.889,-117.7714,5.4726,1.9701
Weston,FL,Broward,26.1006,-80.4054,4.9788,1.7924
Watsonville,CA,Santa Cruz,36.9206,-121.7708,5.3507,1.9263
Palo Alto,CA,Santa Clara,37.3905,-122.1468,4.8794,1.7566
South Hill,WA,Pierce,47.1198,-122.2853,3.6009,1.2963
Shawnee,KS,Johnson,39.0158,-94.8076,4.3191,1.5549
San Marcos,TX,Hays,29.8734,-97.9356,4.9027,1.765
Great Falls,MT,Cascade,47.5022,-111.2996,4.0228,1.4482
Haverhill,MA,Essex,42.7838,-71.0871,3.9001,1.404
Union City,NJ,Hudson,40.7675,-74.0323,4.0175,1.4463
Palatine,IL,Cook,42.118,-88.043,3.9446,1.4201
Longview,WA,Cowlitz,46.1461,-122.963,3.6386,1.3099
Corvallis,OR,Benton,44.5698,-123.2779,4.0182,1.4466
Rockville,MD,Montgomery,39.0834,-77.1553,4.0947,1.4741
Skokie,IL,Cook,42.036,-87.74,3.7545,1.3516
Mount Vernon,WA,Skagit,48.4203,-122.3115,3.6569,1.3165
Casper,WY,Natrona,42.842,-106.3208,4.6624,1.6785
Ames,IA,Story,42.0256,-93.6217,4.1503,1.4941
Delray Beach,FL,Palm Beach,26.455,-80.0905,4.9788,1.7924
Sammamish,WA,King,47.6017,-122.0416,3.6009,1.2963
Lynwood,CA,Los Angeles,33.924,-118.2016,5.1711,1.8616
Dundalk,MD,Baltimore,39.2704,-76.4942,4.1694,1.501
Bethesda,MD,Montgomery,38.9866,-77.1188,4.2275,1.5219
Morristown,TN,Hamblen,36.2043,-83.3001,4.3095,1.5514
Juana Díaz,PR,Juana Díaz,18.0532,-66.5044,5.5331,1.9919
Kankakee,IL,Kankakee,41.102,-87.8643,3.9205,1.4114
Fajardo,PR,Fajardo,18.3331,-65.6589,5.6973,2.051
Alpharetta,GA,Fulton,34.0704,-84.2738,4.4818,1.6134
Novi,MI,Oakland,42.4786,-83.4893,3.8465,1.3847
Kenner,LA,Jefferson,30.0109,-90.2549,4.6605,1.6778
Bay City,MI,Bay,43.5902,-83.8887,3.7992,1.3677
Victoria,TX,Victoria,28.8287,-96.9849,4.8815,1.7573
South San Francisco,CA,San Mateo,37.6538,-122.4196,4.8794,1.7566
Apex,NC,Wake,35.7237,-78.8743,4.5425,1.6353
Parkersburg,WV,Wood,39.2623,-81.542,3.9607,1.4259
Malden,MA,Middlesex,42.4305,-71.0576,3.9001,1.404
Castro Valley,CA,Alameda,37.7088,-122.0626,4.8794,1.7566
Bozeman,MT,Gallatin,45.6833,-111.0558,4.1845,1.5064
Brentwood,NY,Suffolk,40.7839,-73.2522,4.1004,1.4761
Waltham,MA,Middlesex,42.3889,-71.2423,3.9001,1.404
Pflugerville,TX,Travis,30.4515,-97.6018,4.9071,1.7666
North Little Rock,AR,Pulaski,34.7807,-92.2371,4.4586,1.6051
Brentwood,CA,Contra Costa,37.9356,-121.719,5.4264,1.9535
Laguna Niguel,CA,Orange,33.5275,-117.705,5.4726,1.9701
San Clemente,CA,Orange,33.4499,-117.6102,5.4726,1.9701
Burnsville,MN,Dakota,44.7648,-93.2793,3.9987,1.4395
Spring,TX,Harris,30.0613,-95.383,4.7151,1.6974
Port Charlotte,FL,Charlotte,26.9918,-82.114,5.4067,1.9464
Eden Prairie,MN,Hennepin,44.8488,-93.4595,3.9987,1.4395
Greenwood,IN,Johnson,39.6019,-86.1073,4.0917,1.473
Millcreek,UT,Salt Lake,40.6892,-111.8292,4.923,1.7723
Bellevue,NE,Sarpy,41.1485,-95.939,4.3087,1.5511
Coon Rapids,MN,Anoka,45.1755,-93.3094,3.9347,1.4165
Rowlett,TX,Dallas,32.9155,-96.5489,4.7744,1.7188
Hamilton,OH,Butler,39.3939,-84.5653,4.0729,1.4662
Lakewood,WA,Pierce,47.1628,-122.5299,3.6009,1.2963
Florence-Graham,CA,Los Angeles,33.9682,-118.2447,5.1711,1.8616
Commerce City,CO,Adams,39.8641,-104.843,4.9126,1.7685
Bossier City,LA,Bossier,32.5224,-93.6668,4.5969,1.6549
Taylor,MI,Wayne,42.226,-83.2688,3.8465,1.3847
La Habra,CA,Orange,33.9282,-117.9515,5.4726,1.9701
Port Orange,FL,Volusia,29.1085,-81.0137,4.792,1.7251
Moore,OK,Cleveland,35.3293,-97.4757,4.8256,1.7372
Council Bluffs,IA,Pottawattamie,41.2369,-95.8516,4.3087,1.5511
Leander,TX,Williamson,30.5728,-97.8618,4.9071,1.7666
Dearborn Heights,MI,Wayne,42.3164,-83.2769,3.8465,1.3847
Reston,VA,Fairfax,38.9497,-77.3461,4.2275,1.5219
Montebello,CA,Los Angeles,34.0155,-118.1108,5.6778,2.044
Pontiac,MI,Oakland,42.6493,-83.2878,3.8465,1.3847
Encinitas,CA,San Diego,33.0492,-117.261,5.4726,1.9701
Queen Creek,AZ,Maricopa,33.2454,-111.6173,5.8669,2.1121
Medford,MA,Middlesex,42.4234,-71.1087,3.9001,1.404
Springfield,OR,Lane,44.0538,-122.9811,4.0476,1.4571
Hendersonville,TN,Sumner,36.3063,-86.5997,4.3173,1.5542
Palm Harbor,FL,Pinellas,28.0847,-82.7481,5.0641,1.8231
Pico Rivera,CA,Los Angeles,33.9901,-118.0888,5.1711,1.8616
Marietta,GA,Cobb,33.9533,-84.5422,4.5579,1.6408
Wellington,FL,Palm Beach,26.6461,-80.2699,4.9788,1.7924
Sanford,FL,Seminole,28.7891,-81.2757,4.9408,1.7787
Woodland,CA,Yolo,38.6712,-121.75,5.333,1.9199
Caldwell,ID,Canyon,43.6453,-116.6594,4.5942,1.6539
Huntersville,NC,Mecklenburg,35.406,-80.8716,4.5416,1.635
Bristol,CT,Naugatuck Valley,41.6812,-72.9407,4.0035,1.4413
Jupiter,FL,Palm Beach,26.92,-80.1128,4.9788,1.7924
San Rafael,CA,Marin,37.9905,-122.5221,4.8794,1.7566
La Mesa,CA,San Diego,32.7703,-117.0204,5.0458,1.8165
Richland,WA,Benton,46.2824,-119.2939,4.2752,1.5391
Revere,MA,Suffolk,42.4189,-71.004,3.9001,1.404
Meriden,CT,South Central Connecticut,41.5369,-72.7946,4.0035,1.4413
Monterey Park,CA,Los Angeles,34.0497,-118.1326,5.6778,2.044
Gardena,CA,Los Angeles,33.8943,-118.3072,5.1711,1.8616
Euless,TX,Tarrant,32.8508,-97.08,4.9167,1.77
Des Plaines,IL,Cook,42.0345,-87.9008,3.7545,1.3516
West Allis,WI,Milwaukee,43.0068,-88.0296,3.9025,1.4049
North Miami,FL,Miami-Dade,25.9008,-80.1686,5.0915,1.8329
St. Cloud,FL,Osceola,28.2363,-81.2779,4.9408,1.7787
The Hammocks,FL,Miami-Dade,25.67,-80.4482,5.0915,1.8329
Cupertino,CA,Santa Clara,37.3168,-122.0466,4.8794,1.7566
Taylorsville,UT,Salt Lake,40.6569,-111.9493,4.923,1.7723
Petaluma,CA,Sonoma,38.2423,-122.6266,5.268,1.8965
Kokomo,IN,Howard,40.464,-86.1277,4.0341,1.4523
Santee,CA,San Diego,32.8554,-116.9851,5.8447,2.1041
Stonecrest,GA,DeKalb,33.6842,-84.1372,4.5579,1.6408
Taunton,MA,Bristol,41.9036,-71.0943,4.1025,1.4769
White Plains,NY,Westchester,41.022,-73.7547,3.9479,1.4212
Palm Beach Gardens,FL,Palm Beach,26.8466,-80.1679,4.9788,1.7924
Chapel Hill,NC,Orange,35.9271,-79.0391,4.5281,1.6301
Hoboken,NJ,Hudson,40.7452,-74.0281,4.0175,1.4463
Parker,CO,Douglas,39.5084,-104.7753,4.9126,1.7685
Blue Springs,MO,Jackson,39.0124,-94.2721,4.3191,1.5549
Shoreline,WA,King,47.7564,-122.3426,3.6009,1.2963
St. Clair Shores,MI,Macomb,42.4925,-82.8961,3.9174,1.4103
Horizon West,FL,Orange,28.4417,-81.6146,4.9408,1.7787
Margate,FL,Broward,26.2466,-80.2119,4.9788,1.7924
Orland Park,IL,Cook,41.6075,-87.8619,3.9205,1.4114
Carson City,NV,Carson City,39.1511,-119.7476,5.2929,1.9054
Midwest City,OK,Oklahoma,35.463,-97.371,4.8256,1.7372
Royal Oak,MI,Oakland,42.5084,-83.1539,3.8465,1.3847
Bowie,MD,Prince George's,38.9549,-76.7406,4.345,1.5642
Kettering,OH,Montgomery,39.6956,-84.1494,4.0729,1.4662
St. Peters,MO,St. Charles,38.7825,-90.6061,4.2585,1.5331
Oak Lawn,IL,Cook,41.7139,-87.7528,3.9205,1.4114
Towson,MD,Baltimore,39.3944,-76.619,4.1694,1.501
Coconut Creek,FL,Broward,26.2803,-80.1842,4.9788,1.7924
Decatur,AL,Morgan,34.5731,-86.9905,4.499,1.6196
Lenexa,KS,Johnson,38.9609,-94.8018,4.3755,1.5752
Bartlett,TN,Shelby,35.2337,-89.8195,4.4866,1.6152
South Whittier,CA,Los Angeles,33.9336,-118.0312,5.1711,1.8616
Lake Havasu City,AZ,Mohave,34.5006,-114.3113,5.8967,2.1228
Bel Air South,MD,Harford,39.5022,-76.3113,4.1694,1.501
Fountainebleau,FL,Miami-Dade,25.7723,-80.346,5.0915,1.8329
Wylie,TX,Collin,33.0362,-96.5161,4.7418,1.707
Madison,AL,Madison,34.7114,-86.7626,4.499,1.6196
Brookhaven,GA,DeKalb,33.8743,-84.3314,4.5579,1.6408
Highland,CA,San Bernardino,34.1113,-117.165,5.8149,2.0934
Fountain Valley,CA,Orange,33.7105,-117.9514,5.4726,1.9701
Berwyn,IL,Cook,41.8433,-87.7909,3.9205,1.4114
Severn,MD,Anne Arundel,39.1355,-76.6956,4.1694,1.501
Albany,OR,Linn,44.6272,-123.0965,4.0182,1.4466
National City,CA,San Diego,32.6654,-117.0983,5.0458,1.8165
Lacey,WA,Thurston,47.0462,-122.7933,3.6009,1.2963
Mount Prospect,IL,Cook,42.0641,-87.9375,3.7545,1.3516
Arcadia,CA,Los Angeles,34.1342,-118.0373,5.6778,2.044
DeSoto,TX,Dallas,32.5992,-96.8633,4.7744,1.7188
Smyrna,GA,Cobb,33.8633,-84.5168,4.5579,1.6408
Bradenton,FL,Manatee,27.4901,-82.5757,5.2308,1.8831
New Brunswick,NJ,Middlesex,40.487,-74.445,4.0175,1.4463
Apple Valley,MN,Dakota,44.7457,-93.2004,3.9987,1.4395
Tinley Park,IL,Cook,41.567,-87.8049,3.9205,1.4114
Sarasota,FL,Sarasota,27.3387,-82.5432,5.2308,1.8831
Hacienda Heights,CA,Los Angeles,33.997,-117.9727,5.4726,1.9701
Chicopee,MA,Hampden,42.1764,-72.5719,3.8491,1.3857
West Haven,CT,South Central Connecticut,41.2739,-72.9672,4.0035,1.4413
Herriman,UT,Salt Lake,40.4899,-112.017,4.92,1.7712
Perth Amboy,NJ,Middlesex,40.5202,-74.2724,4.0175,1.4463
Casa Grande,AZ,Pinal,32.9069,-111.7624,5.9351,2.1366
Tigard,OR,Washington,45.4237,-122.7845,3.8231,1.3763
Apopka,FL,Orange,28.7015,-81.5316,4.9408,1.7787
Southaven,MS,DeSoto,34.9514,-89.9786,4.5348,1.6325
Huntington Park,CA,Los Angeles,33.98,-118.2167,5.1711,1.8616
Diamond Bar,CA,Los Angeles,33.9992,-117.8161,5.4726,1.9701
Bentonville,AR,Benton,36.3547,-94.2305,4.5144,1.6252
Yucaipa,CA,San Bernardino,34.0336,-117.0429,5.8149,2.0934
Plainfield,NJ,Union,40.6154,-74.4157,4.0175,1.4463
Manhattan,KS,Riley,39.1886,-96.6048,4.4711,1.6096
Aspen Hill,MD,Montgomery,39.0927,-77.0826,4.0947,1.4741
Rocky Mount,NC,Nash,35.9685,-77.804,4.5289,1.6304
Peabody,MA,Essex,42.5335,-70.9725,3.925,1.413
West Sacramento,CA,Yolo,38.5557,-121.5505,5.333,1.9199
San Jacinto,CA,Riverside,33.797,-116.9916,5.8457,2.1045
Kentwood,MI,Kent,42.8852,-85.5926,3.8138,1.373
Colton,CA,San Bernardino,34.0538,-117.3255,5.8149,2.0934
Oak Park,IL,Cook,41.8872,-87.7899,3.9205,1.4114
Westchester,FL,Miami-Dade,25.7471,-80.3523,5.0915,1.8329
Smyrna,TN,Rutherford,35.9687,-86.5264,4.4041,1.5855
Wheaton,IL,DuPage,41.8561,-88.1085,3.9776,1.4319
Beaumont,CA,Riverside,33.9076,-116.9766,5.8457,2.1045
Aloha,OR,Washington,45.492,-122.8725,3.8231,1.3763
Minnetonka,MN,Hennepin,44.9322,-93.4598,3.9987,1.4395
Pinellas Park,FL,Pinellas,27.8589,-82.7078,5.2308,1.8831
Kannapolis,NC,Cabarrus,35.4764,-80.6408,4.5416,1.635
Paramount,CA,Los Angeles,33.8977,-118.1651,5.1711,1.8616
Texas City,TX,Galveston,29.4154,-94.9682,4.7956,1.7264
Novato,CA,Marin,38.092,-122.5575,5.268,1.8965
Edina,MN,Hennepin,44.8914,-93.3602,3.9987,1.4395
Normal,IL,McLean,40.5217,-88.9884,4.0565,1.4603
Tamiami,FL,Miami-Dade,25.7556,-80.4016,5.0915,1.8329
Grand Island,NE,Hall,40.9218,-98.3586,4.5982,1.6554
Methuen Town,MA,Essex,42.734,-71.1889,3.9001,1.404
Elyria,OH,Lorain,41.376,-82.106,3.8516,1.3866
Wheaton,MD,Montgomery,39.0492,-77.0573,4.0947,1.4741
Kendale Lakes,FL,Miami-Dade,25.7081,-80.4078,5.0915,1.8329
Marana,AZ,Pima,32.4355,-111.1558,5.9351,2.1366
West New York,NJ,Hudson,40.7857,-74.0094,4.0175,1.4463
Twin Falls,ID,Twin Falls,42.5645,-114.4613,4.6733,1.6824
Florissant,MO,St. Louis,38.7996,-90.3269,4.2585,1.5331
Glendora,CA,Los Angeles,34.1449,-117.8467,5.8149,2.0934
Cathedral City,CA,Riverside,33.8362,-116.4642,5.8457,2.1045
Aliso Viejo,CA,Orange,33.5792,-117.7289,5.4726,1.9701
Placentia,CA,Orange,33.8807,-117.8553,5.4726,1.9701
Hoffman Estates,IL,Cook,42.064,-88.1468,3.9446,1.4201
Burien,WA,King,47.4762,-122.3394,3.6009,1.2963
Dunwoody,GA,DeKalb,33.9418,-84.3122,4.5579,1.6408
Palm Desert,CA,Riverside,33.7378,-116.3695,5.8457,2.1045
Troy,NY,Rensselaer,42.7354,-73.6751,3.8074,1.3707
Collierville,TN,Shelby,35.047,-89.6987,4.4866,1.6152
Levittown,PA,Bucks,40.1533,-74.8531,4.0175,1.4463
Rosemead,CA,Los Angeles,34.0689,-118.0823,5.6778,2.044
Country Club,FL,Miami-Dade,25.9407,-80.3102,5.0915,1.8329
Enid,OK,Garfield,36.4063,-97.87,4.786,1.723
Cuyahoga Falls,OH,Summit,41.1641,-81.5207,3.775,1.359
Mishawaka,IN,St. Joseph,41.6742,-86.1666,3.8863,1.3991
Columbus,IN,Bartholomew,39.2093,-85.9183,4.0934,1.4736
Summerville,SC,Dorchester,33.0016,-80.1799,4.6488,1.6736
Levittown,NY,Nassau,40.7241,-73.5125,4.1004,1.4761
Grapevine,TX,Tarrant,32.9343,-97.0742,4.9167,1.77
Covina,CA,Los Angeles,34.0903,-117.8818,5.8149,2.0934
Milford city ,CT,South Central Connecticut,41.2255,-73.0625,3.9479,1.4212
Draper,UT,Salt Lake,40.4957,-111.8605,4.923,1.7723
Lakewood,OH,Cuyahoga,41.4822,-81.8008,3.775,1.359
Catalina Foothills,AZ,Pima,32.3046,-110.8838,5.8832,2.118
Delano,CA,Kern,35.7662,-119.2635,5.6404,2.0305
Lincoln,CA,Placer,38.8774,-121.2937,5.333,1.9199
Murray,UT,Salt Lake,40.6498,-111.8874,4.923,1.7723
Mooresville,NC,Iredell,35.5847,-80.8266,4.5416,1.635
Downers Grove,IL,DuPage,41.7949,-88.0172,3.9776,1.4319
Florin,CA,Sacramento,38.4832,-121.4043,5.333,1.9199
Cypress,CA,Orange,33.8171,-118.0386,5.1711,1.8616
Jeffersonville,IN,Clark,38.3376,-85.7026,4.1544,1.4956
North Bethesda,MD,Montgomery,39.0393,-77.1191,4.0947,1.4741
Azusa,CA,Los Angeles,34.1386,-117.9124,5.8149,2.0934
Coral Gables,FL,Miami-Dade,25.7037,-80.2715,5.0915,1.8329
Chesterfield,MO,St. Louis,38.6589,-90.5803,4.2585,1.5331
McLean,VA,Fairfax,38.9436,-77.1943,4.2275,1.5219
St. Louis Park,MN,Hennepin,44.9488,-93.3649,3.9987,1.4395
East Honolulu,HI,Honolulu,21.2975,-157.7211,5.8149,2.0934
Bedford,TX,Tarrant,32.8464,-97.135,4.9167,1.77
Euclid,OH,Cuyahoga,41.5903,-81.5188,3.775,1.359
Lawrence,IN,Marion,39.8674,-85.9904,4.0934,1.4736
Ceres,CA,Stanislaus,37.5952,-120.962,5.3991,1.9437
University,FL,Hillsborough,28.0771,-82.4335,5.0641,1.8231
Biloxi,MS,Harrison,30.4426,-88.9514,4.7763,1.7195
El Dorado Hills,CA,El Dorado,38.675,-121.049,5.333,1.9199
Cerritos,CA,Los Angeles,33.8678,-118.0686,5.1711,1.8616
Burleson,TX,Johnson,32.517,-97.3344,4.9167,1.77
Portage,MI,Kalamazoo,42.2,-85.5906,3.8138,1.373
Dublin,OH,Franklin,40.1112,-83.1454,4.0027,1.441
Poway,CA,San Diego,32.9871,-117.0201,5.0458,1.8165
Cedar Hill,TX,Dallas,32.581,-96.9591,4.7744,1.7188
Everett,MA,Middlesex,42.4064,-71.0545,3.9001,1.404
Stillwater,OK,Payne,36.1317,-97.0742,4.786,1.723
Titusville,FL,Brevard,28.5727,-80.8193,4.92,1.7712
Niagara Falls,NY,Niagara,43.0921,-79.0147,3.7737,1.3585
Kyle,TX,Hays,29.9932,-97.8852,4.9027,1.765
Leesburg,VA,Loudoun,39.1057,-77.5544,4.0947,1.4741
Westfield,IN,Hamilton,40.0341,-86.1529,4.0341,1.4523
Little Elm,TX,Denton,33.1858,-96.9295,4.7418,1.707
Middletown,CT,Lower Connecticut River Valley,41.5476,-72.6549,4.0035,1.4413
North Highlands,CA,Sacramento,38.6713,-121.3721,5.333,1.9199
Tuckahoe,VA,Henrico,37.5878,-77.5858,4.3699,1.5732
Wake Forest,NC,Wake,35.9632,-78.514,4.5425,1.6353
Minot,ND,Ward,48.2375,-101.278,3.9762,1.4314
Roswell,NM,Chaves,33.373,-104.5294,5.6372,2.0294
Wauwatosa,WI,Milwaukee,43.0616,-88.0347,3.9025,1.4049
Bothell,WA,King,47.7735,-122.2044,3.6009,1.2963
Glenview,IL,Cook,42.0825,-87.8214,3.7545,1.3516
Rockwall,TX,Rockwall,32.9169,-96.4374,4.7744,1.7188
Wilson,NC,Wilson,35.7311,-77.9284,4.5289,1.6304
Rancho Santa Margarita,CA,Orange,33.6318,-117.5988,5.4726,1.9701
La Mirada,CA,Los Angeles,33.9025,-118.0093,5.1711,1.8616
Antelope,CA,Sacramento,38.7153,-121.361,5.333,1.9199
Hilo,HI,Hawaii,19.6883,-155.0863,5.449,1.9616
San Luis Obispo,CA,San Luis Obispo,35.2669,-120.669,5.5928,2.0134
Roseville,MI,Macomb,42.5074,-82.9369,3.9174,1.4103
Newark,CA,Alameda,37.5201,-122.0307,4.8794,1.7566
Mentor,OH,Lake,41.6893,-81.3362,3.775,1.359
Ocoee,FL,Orange,28.5796,-81.5332,4.9408,1.7787
Rowland Heights,CA,Los Angeles,33.9716,-117.8912,5.4726,1.9701
Fort Pierce,FL,St. Lucie,27.4255,-80.3431,5.0288,1.8104
Brea,CA,Orange,33.9254,-117.8655,5.4726,1.9701
Oro Valley,AZ,Pima,32.4208,-110.9767,5.8832,2.118
East Providence,RI,Providence,41.8065,-71.3565,4.1025,1.4769
Pearl City,HI,Honolulu,21.4031,-157.9566,5.8149,2.0934
Salina,KS,Saline,38.8136,-97.6143,4.6586,1.6771
Beavercreek,OH,Greene,39.731,-84.0624,4.0729,1.4662
Winter Garden,FL,Orange,28.5421,-81.5967,4.9408,1.7787
Potomac,MD,Montgomery,39.0141,-77.1943,4.0947,1.4741
Farmington,NM,San Juan,36.7555,-108.1823,5.6216,2.0238
Attleboro,MA,Bristol,41.9311,-71.295,4.1025,1.4769
Huntsville,TX,Walker,30.7009,-95.5567,4.7151,1.6974
Strongsville,OH,Cuyahoga,41.3128,-81.8313,3.775,1.359
Eagle Mountain,UT,Utah,40.3137,-112.0114,4.92,1.7712
Prescott,AZ,Yavapai,34.5849,-112.4473,5.7716,2.0778
Olive Branch,MS,DeSoto,34.961,-89.8469,4.5348,1.6325
Goose Creek,SC,Berkeley,32.9927,-80.0055,4.7988,1.7276
Sicklerville,NJ,Camden,39.7452,-74.9934,4.1491,1.4937
Altamonte Springs,FL,Seminole,28.6615,-81.3953,4.9408,1.7787
Haltom City,TX,Tarrant,32.8176,-97.2707,4.9167,1.77
Hackensack,NJ,Bergen,40.8891,-74.0462,4.0175,1.4463
Elmhurst,IL,DuPage,41.8973,-87.9432,3.9205,1.4114
Urbandale,IA,Polk,41.639,-93.7812,4.2286,1.5223
Los Banos,CA,Merced,37.063,-120.8406,5.3991,1.9437
Littleton,CO,Arapahoe,39.5915,-105.0188,4.83,1.7388
Ashburn,VA,Loudoun,39.0277,-77.4714,4.0947,1.4741
East Lansing,MI,Ingham,42.748,-84.4836,3.8391,1.3821
Bountiful,UT,Davis,40.8721,-111.8647,4.923,1.7723
Keller,TX,Tarrant,32.9335,-97.2256,4.9167,1.77
Morgan Hill,CA,Santa Clara,37.1325,-121.6419,5.4264,1.9535
Sierra Vista,AZ,Cochise,31.563,-110.3153,5.8892,2.1201
Sayreville,NJ,Middlesex,40.4656,-74.3237,4.0175,1.4463
Odenton,MD,Anne Arundel,39.0661,-76.6938,4.1694,1.501
Cleveland Heights,OH,Cuyahoga,41.5113,-81.5636,3.775,1.359
Gallatin,TN,Sumner,36.3782,-86.4698,4.3173,1.5542
Plainfield,IL,Will,41.6207,-88.2253,3.9776,1.4319
Palm Springs,CA,Riverside,33.8017,-116.5382,5.8457,2.1045
Riverton,UT,Salt Lake,40.5176,-111.9636,4.923,1.7723
West Lafayette,IN,Tippecanoe,40.4432,-86.9238,4.0341,1.4523
Brentwood,TN,Williamson,35.9918,-86.7758,4.4041,1.5855
Cutler Bay,FL,Miami-Dade,25.5765,-80.3356,5.0915,1.8329
Lake Ridge,VA,Prince William,38.6847,-77.3066,4.2275,1.5219
Whitney,NV,Clark,36.1008,-115.0379,5.6517,2.0346
Pahrump,NV,Nye,36.2235,-115.9974,5.6517,2.0346
North Lauderdale,FL,Broward,26.2113,-80.2209,4.9788,1.7924
Fairfield,OH,Butler,39.3301,-84.5409,4.0729,1.4662
Wentzville,MO,St. Charles,38.8153,-90.8669,4.2585,1.5331
Salem,MA,Essex,42.5129,-70.9021,3.925,1.413
Fond du Lac,WI,Fond du Lac,43.7718,-88.4397,3.9025,1.4049
Rohnert Park,CA,Sonoma,38.3479,-122.6965,5.268,1.8965
Mankato,MN,Blue Earth,44.1715,-93.9772,3.9987,1.4395
Moorhead,MN,Clay,46.8673,-96.7461,4.0705,1.4654
The Colony,TX,Denton,33.0925,-96.8976,4.7418,1.707
Burke,VA,Fairfax,38.7773,-77.2633,4.2275,1.5219
Freeport,NY,Nassau,40.6515,-73.585,4.1004,1.4761
El Centro,CA,Imperial,32.7865,-115.5595,5.9474,2.1411
Shakopee,MN,Scott,44.7745,-93.4772,3.9987,1.4395
Wilkes-Barre,PA,Luzerne,41.2469,-75.876,3.7647,1.3553
Lompoc,CA,Santa Barbara,34.6618,-120.4714,5.1871,1.8674
Hicksville,NY,Nassau,40.7637,-73.5245,4.1004,1.4761
Oakland Park,FL,Broward,26.178,-80.1528,4.9788,1.7924
Lombard,IL,DuPage,41.8741,-88.0157,3.9776,1.4319
Concord,NH,Merrimack,43.2305,-71.5595,3.768,1.3565
Pittsfield,MA,Berkshire,42.4517,-73.2605,3.8074,1.3707
Greenacres,FL,Palm Beach,26.627,-80.1371,4.9788,1.7924
Oakley,CA,Contra Costa,37.9929,-121.6952,5.4264,1.9535
Linden,NJ,Union,40.6251,-74.2383,4.0175,1.4463
Campbell,CA,Santa Clara,37.2802,-121.9539,5.4264,1.9535
Danville,CA,Contra Costa,37.8121,-121.9698,5.4264,1.9535
North Miami Beach,FL,Miami-Dade,25.9302,-80.1659,5.0915,1.8329
Clermont,FL,Lake,28.5325,-81.7208,4.9408,1.7787
San Bruno,CA,San Mateo,37.6256,-122.4313,4.8794,1.7566
Channelview,TX,Harris,29.7914,-95.1144,4.7376,1.7055
Trujillo Alto,PR,Trujillo Alto,18.3599,-66.0096,5.5331,1.9919
Ormond Beach,FL,Volusia,29.2985,-81.1014,4.792,1.7251
Huber Heights,OH,Montgomery,39.8595,-84.113,4.0729,1.4662
Woonsocket,RI,Providence,42.001,-71.4993,3.9001,1.404
Buffalo Grove,IL,Lake,42.1675,-87.9615,3.7545,1.3516
West Babylon,NY,Suffolk,40.7129,-73.3585,4.1004,1.4761
Catonsville,MD,Baltimore,39.2646,-76.7424,4.1694,1.501
Altadena,CA,Los Angeles,34.1927,-118.1346,5.6778,2.044
Edmonds,WA,Snohomish,47.8115,-122.3533,3.6009,1.2963
Linton Hall,VA,Prince William,38.7551,-77.575,4.2275,1.5219
Spanish Fork,UT,Utah,40.1101,-111.6405,4.923,1.7723
Newnan,GA,Coweta,33.3767,-84.7761,4.5579,1.6408
Vineyard,CA,Sacramento,38.474,-121.324,5.333,1.9199
Jefferson City,MO,Cole,38.5676,-92.1759,4.3139,1.553
Manassas,VA,Manassas,38.7479,-77.4838,4.2275,1.5219
Woodbridge,VA,Prince William,38.6409,-77.258,4.2275,1.5219
Puyallup,WA,Pierce,47.1793,-122.2902,3.6009,1.2963
Schertz,TX,Bexar,29.565,-98.2535,4.952,1.7827
Coppell,TX,Dallas,32.9639,-96.9903,4.7744,1.7188
Danville,VA,Danville,36.5831,-79.4088,4.4481,1.6013
North Fort Myers,FL,Lee,26.7244,-81.8485,5.1341,1.8483
Columbia,TN,Maury,35.6238,-87.0484,4.4026,1.5849
Moline,IL,Rock Island,41.4821,-90.492,4.0687,1.4647
Beverly,MA,Essex,42.5681,-70.8627,3.925,1.413
Midland,MI,Midland,43.6241,-84.2319,3.7847,1.3625
Annandale,VA,Fairfax,38.8324,-77.196,4.2275,1.5219
Coachella,CA,Riverside,33.6905,-116.143,5.8457,2.1045
Woodlawn,MD,Baltimore,39.3054,-76.7489,4.1694,1.501
Meadow Woods,FL,Orange,28.3698,-81.3467,4.9408,1.7787
Coram,NY,Suffolk,40.8812,-73.0059,4.1004,1.4761
Belleville,IL,St. Clair,38.5164,-89.99,4.2795,1.5406
Peachtree Corners,GA,Gwinnett,33.967,-84.232,4.5579,1.6408
Hollister,CA,San Benito,36.8555,-121.3986,5.3507,1.9263
Holly Springs,NC,Wake,35.6526,-78.8399,4.5425,1.6353
Delaware,OH,Delaware,40.2851,-83.0741,4.0027,1.441
Rancho Palos Verdes,CA,Los Angeles,33.7554,-118.3634,5.1711,1.8616
Waxahachie,TX,Ellis,32.4035,-96.8446,4.7744,1.7188
Mableton,GA,Cobb,33.8133,-84.5655,4.5579,1.6408
Fitchburg,MA,Worcester,42.5912,-71.8156,3.9001,1.404
Bullhead City,AZ,Mohave,35.1205,-114.5461,5.8056,2.09
Grove City,OH,Franklin,39.8654,-83.069,4.0606,1.4618
Maplewood,MN,Ramsey,44.9842,-93.0247,3.9987,1.4395
Marion,IA,Linn,42.0451,-91.585,4.049,1.4576
Marlborough,MA,Middlesex,42.3494,-71.5468,3.9001,1.404
Brookfield,WI,Waukesha,43.064,-88.1231,3.9025,1.4049
French Valley,CA,Riverside,33.5999,-117.1069,5.4726,1.9701
Shelton,CT,Naugatuck Valley,41.306,-73.1383,3.9479,1.4212
Pine Bluff,AR,Jefferson,34.2116,-92.0173,4.4586,1.6051
Kearny,NJ,Hudson,40.7528,-74.1202,4.0175,1.4463
Hallandale Beach,FL,Broward,25.9854,-80.1423,5.0915,1.8329
Germantown,TN,Shelby,35.0829,-89.7824,4.4866,1.6152
Milton,GA,Fulton,34.1353,-84.3139,4.4818,1.6134
Woburn,MA,Middlesex,42.4869,-71.1543,3.9001,1.404
Lancaster,TX,Dallas,32.5922,-96.7739,4.7744,1.7188
Reynoldsburg,OH,Franklin,39.9588,-82.7943,3.9859,1.4349
Covington,KY,Kenton,39.0334,-84.5166,4.0729,1.4662
Friendswood,TX,Galveston,29.511,-95.1981,4.7376,1.7055
Weslaco,TX,Hidalgo,26.1599,-97.9877,4.9024,1.7649
Land O' Lakes,FL,Pasco,28.2075,-82.4476,5.0641,1.8231
Essex,MD,Baltimore,39.3021,-76.4449,4.1694,1.501
Bartlett,IL,DuPage,41.9804,-88.2071,3.9776,1.4319
Westfield,MA,Hampden,42.1382,-72.7561,3.8491,1.3857
Annapolis,MD,Anne Arundel,38.9706,-76.5047,4.345,1.5642
DeKalb,IL,DeKalb,41.9314,-88.7481,3.9776,1.4319
Cedar Falls,IA,Black Hawk,42.5195,-92.4536,4.1215,1.4837
Lancaster,OH,Fairfield,39.7248,-82.6049,3.9859,1.4349
Brighton,CO,Adams,39.9716,-104.7963,4.9126,1.7685
Crystal Lake,IL,McHenry,42.2333,-88.3351,3.9446,1.4201
Lake Oswego,OR,Clackamas,45.4129,-122.7004,3.8231,1.3763
Severna Park,MD,Anne Arundel,39.087,-76.5687,4.1694,1.501
Findlay,OH,Hancock,41.0469,-83.6379,3.9523,1.4228
Saratoga Springs,UT,Utah,40.345,-111.9154,4.923,1.7723
New Berlin,WI,Waukesha,42.9726,-88.1291,3.9446,1.4201
Culver City,CA,Los Angeles,34.0058,-118.3968,5.6778,2.044
Indian Trail,NC,Union,35.0699,-80.6452,4.5416,1.635
Duncanville,TX,Dallas,32.646,-96.9127,4.7744,1.7188
Valley Stream,NY,Nassau,40.6647,-73.7043,4.1004,1.4761
Clinton,MD,Prince George's,38.7499,-76.9063,4.345,1.5642
The Acreage,FL,Palm Beach,26.774,-80.2779,4.9788,1.7924
Romeoville,IL,Will,41.6318,-88.0997,3.9776,1.4319
Hurst,TX,Tarrant,32.8353,-97.1809,4.9167,1.77
Post Falls,ID,Kootenai,47.7213,-116.9384,3.8932,1.4016
Hutchinson,KS,Reno,38.0671,-97.9081,4.6586,1.6771
Chelsea,MA,Suffolk,42.3959,-71.0325,3.9001,1.404
Waipahu,HI,Honolulu,21.3859,-158.0101,5.9723,2.15
Lynnwood,WA,Snohomish,47.8284,-122.3033,3.6009,1.2963
Lincoln Park,MI,Wayne,42.2432,-83.1811,3.8465,1.3847
Fort Lee,NJ,Bergen,40.8509,-73.9713,4.1004,1.4761
Cape Girardeau,MO,Cape Girardeau,37.3109,-89.5597,4.3529,1.567
Hobbs,NM,Lea,32.7281,-103.16,5.75,2.07
Carol Stream,IL,DuPage,41.9181,-88.1307,3.9776,1.4319
Plant City,FL,Hillsborough,28.014,-82.1201,5.0641,1.8231
Aventura,FL,Miami-Dade,25.9566,-80.1371,5.0915,1.8329
Lebanon,TN,Wilson,36.204,-86.3481,4.3173,1.5542
Streamwood,IL,Cook,42.0209,-88.1779,3.9446,1.4201
Oviedo,FL,Seminole,28.658,-81.1872,4.9408,1.7787
Mount Juliet,TN,Wilson,36.199,-86.5115,4.3173,1.5542
Quincy,IL,Adams,39.9336,-91.3799,4.2358,1.5249
Issaquah,WA,King,47.5439,-122.0471,3.6009,1.2963
Parkland,WA,Pierce,47.1417,-122.4376,3.6009,1.2963
Park Ridge,IL,Cook,42.0125,-87.8436,3.7545,1.3516
Cottage Grove,MN,Washington,44.8161,-92.9274,3.9651,1.4274
Bell Gardens,CA,Los Angeles,33.9663,-118.155,5.1711,1.8616
San Gabriel,CA,Los Angeles,34.0949,-118.099,5.6778,2.044
Warren,OH,Trumbull,41.239,-80.8174,3.8039,1.3694
Security-Widefield,CO,El Paso,38.7489,-104.7142,5.0743,1.8267
Grants Pass,OR,Josephine,42.4333,-123.3317,4.5756,1.6472
Keizer,OR,Marion,45.0028,-123.0243,3.8231,1.3763
Roy,UT,Weber,41.1714,-112.0485,4.735,1.7046
Bettendorf,IA,Scott,41.5657,-90.4765,4.0687,1.4647
Westerville,OH,Franklin,40.1241,-82.921,3.9529,1.423
Royal Palm Beach,FL,Palm Beach,26.7038,-80.2241,4.9788,1.7924
Apache Junction,AZ,Pinal,33.3985,-111.535,5.8669,2.1121
Navarre,FL,Santa Rosa,30.4174,-86.8907,4.8094,1.7314
Wheeling,IL,Cook,42.1308,-87.924,3.7545,1.3516
Lake Stevens,WA,Snohomish,48.0024,-122.0953,3.6569,1.3165
Rexburg,ID,Madison,43.8226,-111.7919,4.511,1.624
Urbana,IL,Champaign,40.1107,-88.1973,4.0565,1.4603
Rosenberg,TX,Fort Bend,29.5456,-95.8223,4.7376,1.7055
West Fargo,ND,Cass,46.8573,-96.9057,4.0705,1.4654
La Presa,CA,San Diego,32.711,-117.0027,5.0458,1.8165
Menomonee Falls,WI,Waukesha,43.1487,-88.1227,3.9025,1.4049
Vestavia Hills,AL,Jefferson,33.4518,-86.7437,4.5741,1.6467
Calexico,CA,Imperial,32.6849,-115.4944,5.9474,2.1411
Valrico,FL,Hillsborough,27.9193,-82.2293,5.2308,1.8831
La Vergne,TN,Rutherford,36.02,-86.5586,4.3173,1.5542
Atlantic City,NJ,Atlantic,39.3797,-74.4527,4.1491,1.4937
Clovis,NM,Curry,34.4376,-103.1923,5.6076,2.0187
Peachtree City,GA,Fayette,33.3942,-84.571,4.5579,1.6408
Phenix City,AL,Russell,32.4585,-85.0253,4.6596,1.6775
DeLand,FL,Volusia,29.0225,-81.2875,4.792,1.7251
Mechanicsville,VA,Hanover,37.6263,-77.3561,4.3699,1.5732
Stanton,CA,Orange,33.8003,-117.9935,5.4726,1.9701
Holyoke,MA,Hampden,42.2125,-72.6411,3.8491,1.3857
Winter Springs,FL,Seminole,28.6889,-81.2703,4.9408,1.7787
Owasso,OK,Tulsa,36.2878,-95.8311,4.5563,1.6403
Prattville,AL,Autauga,32.4597,-86.4573,4.6675,1.6803
East Point,GA,Fulton,33.6696,-84.4701,4.5579,1.6408
Pacifica,CA,San Mateo,37.6113,-122.4782,4.8794,1.7566
Hot Springs,AR,Garland,34.4892,-93.0501,4.4356,1.5968
Adelanto,CA,San Bernardino,34.5814,-117.4397,5.8149,2.0934
Princeton,FL,Miami-Dade,25.5396,-80.3971,5.0915,1.8329
Northglenn,CO,Adams,39.9108,-104.9783,4.9126,1.7685
Tupelo,MS,Lee,34.2692,-88.7318,4.5054,1.6219
La Quinta,CA,Riverside,33.6536,-116.2785,5.8457,2.1045
Elmont,NY,Nassau,40.7033,-73.7078,4.1004,1.4761
Mission Bend,TX,Fort Bend,29.6948,-95.6658,4.7376,1.7055
Montclair,CA,San Bernardino,34.0715,-117.6981,5.8149,2.0934
La Puente,CA,Los Angeles,34.0323,-117.9533,5.8149,2.0934
Carpentersville,IL,Kane,42.1227,-88.2896,3.9446,1.4201
Sun City,AZ,Maricopa,33.6165,-112.2819,5.8997,2.1239
Portage,IN,Porter,41.5856,-87.1797,3.9205,1.4114
Hilton Head Island,SC,Beaufort,32.1896,-80.7499,4.7988,1.7276
Riviera Beach,FL,Palm Beach,26.7813,-80.0741,4.9788,1.7924
Monrovia,CA,Los Angeles,34.165,-117.9921,5.8149,2.0934
Foothill Farms,CA,Sacramento,38.6867,-121.3475,5.333,1.9199
Rome,GA,Floyd,34.2662,-85.1863,4.4757,1.6113
South Valley,NM,Bernalillo,35.0093,-106.6819,5.5494,1.9978
New Albany,IN,Floyd,38.309,-85.8234,4.1544,1.4956
Lewiston,ME,Androscoggin,44.0915,-70.1681,3.6792,1.3245
Winchester,NV,Clark,36.1365,-115.137,5.6517,2.0346
Greenfield,WI,Milwaukee,42.9619,-88.0052,3.9446,1.4201
Georgetown,KY,Scott,38.2247,-84.5487,4.1444,1.492
Evans,GA,Columbia,33.5619,-82.1351,4.6275,1.6659
Pleasant Grove,UT,Utah,40.3716,-111.7412,4.923,1.7723
Oregon City,OR,Clackamas,45.3418,-122.5924,3.8231,1.3763
Bartlesville,OK,Washington,36.7365,-95.9456,4.5563,1.6403
Rock Island,IL,Rock Island,41.4699,-90.5827,4.0687,1.4647
Hanover Park,IL,DuPage,41.9818,-88.1446,3.9776,1.4319
Leavenworth,KS,Leavenworth,39.3239,-94.924,4.3191,1.5549
Martinez,CA,Contra Costa,37.9985,-122.1161,4.8794,1.7566
Greer,SC,Greenville,34.933,-82.2313,4.6288,1.6664
Tucker,GA,DeKalb,33.8436,-84.2024,4.5579,1.6408
Richmond West,FL,Miami-Dade,25.6105,-80.4297,5.0915,1.8329
Muskogee,OK,Muskogee,35.7432,-95.3567,4.5489,1.6376
Claremont,CA,Los Angeles,34.1259,-117.7153,5.8149,2.0934
Kearns,UT,Salt Lake,40.6519,-112.0095,4.92,1.7712
East Meadow,NY,Nassau,40.7197,-73.5604,4.1004,1.4761
Wildomar,CA,Riverside,33.6173,-117.2582,5.4726,1.9701
Richfield,MN,Hennepin,44.8763,-93.2829,3.9987,1.4395
Estero,FL,Lee,26.4276,-81.7951,5.1341,1.8483
Beloit,WI,Rock,42.523,-89.0184,3.984,1.4342
Oakton,VA,Fairfax,38.8887,-77.3016,4.2275,1.5219
Central Islip,NY,Suffolk,40.7836,-73.1945,4.1004,1.4761
Franklin,WI,Milwaukee,42.8854,-88.0104,3.9446,1.4201
Upper Arlington,OH,Franklin,40.0272,-83.0704,4.0027,1.441
Copperas Cove,TX,Coryell,31.1192,-97.914,4.8957,1.7625
Tooele,UT,Tooele,40.5393,-112.3082,4.92,1.7712
Oak Creek,WI,Milwaukee,42.8803,-87.9009,3.7545,1.3516
Randallstown,MD,Baltimore,39.3723,-76.8024,4.1694,1.501
Merrillville,IN,Lake,41.4728,-87.3196,3.9205,1.4114
Temple City,CA,Los Angeles,34.1022,-118.0579,5.6778,2.044
Carrollwood,FL,Hillsborough,28.0577,-82.5148,5.0641,1.8231
Hilliard,OH,Franklin,40.0353,-83.1578,4.0027,1.441
Dunedin,FL,Pinellas,28.0329,-82.7862,5.0641,1.8231
Moorpark,CA,Ventura,34.2861,-118.8768,5.6778,2.044
Roseville,MN,Ramsey,45.0155,-93.1545,3.9347,1.4165
Egypt Lake-Leto,FL,Hillsborough,28.0177,-82.5062,5.0641,1.8231
Farmers Branch,TX,Dallas,32.9272,-96.8804,4.7744,1.7188
Marion,OH,Marion,40.5973,-83.1227,4.0027,1.441
Lauderdale Lakes,FL,Broward,26.1682,-80.2017,4.9788,1.7924
Chillum,MD,Prince George's,38.9666,-76.9791,4.345,1.5642
Orangevale,CA,Sacramento,38.6881,-121.2209,5.333,1.9199
Sun Prairie,WI,Dane,43.1825,-89.2362,3.9028,1.405
Cedar City,UT,Iron,37.6834,-113.0956,5.4492,1.9617
La Porte,TX,Harris,29.6689,-95.0484,4.7376,1.7055
Commack,NY,Suffolk,40.8435,-73.2833,4.1004,1.4761
Norristown,PA,Montgomery,40.1225,-75.3398,3.9492,1.4217
Calumet City,IL,Cook,41.6134,-87.5505,3.9205,1.4114
South Miami Heights,FL,Miami-Dade,25.5886,-80.3862,5.0915,1.8329
Addison,IL,DuPage,41.9313,-88.0085,3.9776,1.4319
Inver Grove Heights,MN,Dakota,44.8247,-93.0596,3.9987,1.4395
El Mirage,AZ,Maricopa,33.5905,-112.3271,5.8997,2.1239
Richmond,IN,Wayne,39.8318,-84.8905,4.0729,1.4662
Midvale,UT,Salt Lake,40.6148,-111.8927,4.923,1.7723
Kendall West,FL,Miami-Dade,25.7065,-80.4388,5.0915,1.8329
Lima,OH,Allen,40.741,-84.112,4.0432,1.4556
Gahanna,OH,Franklin,40.0251,-82.8637,3.9529,1.423
Olney,MD,Montgomery,39.1465,-77.0715,4.0947,1.4741
Torrington,CT,Northwest Hills,41.8349,-73.1282,3.9479,1.4212
Kaneohe,HI,Honolulu,21.4062,-157.7904,5.8149,2.0934
North Ridgeville,OH,Lorain,41.3852,-82.0195,3.8516,1.3866
San Juan,TX,Hidalgo,26.1903,-98.152,5.1452,1.8523
Midlothian,TX,Ellis,32.4669,-96.989,4.7744,1.7188
Salisbury,NC,Rowan,35.6658,-80.4905,4.5416,1.635
Socorro,TX,El Paso,31.6383,-106.2601,5.9393,2.1381
Fuquay-Varina,NC,Wake,35.5953,-78.7778,4.5425,1.6353
Oakville,MO,St. Louis,38.4479,-90.3199,4.2585,1.5331
West Hollywood,CA,Los Angeles,34.0883,-118.3719,5.6778,2.044
Westmont,CA,Los Angeles,33.9417,-118.3018,5.1711,1.8616
Fruit Cove,FL,St. Johns,30.0972,-81.6175,4.7861,1.723
Benton,AR,Saline,34.5776,-92.5713,4.4586,1.6051
Brunswick,OH,Medina,41.2465,-81.8198,3.775,1.359
Wildwood,MO,St. Louis,38.58,-90.6698,4.2585,1.5331
Douglasville,GA,Douglas,33.7384,-84.7054,4.5579,1.6408
Springville,UT,Utah,40.1638,-111.6205,4.923,1.7723
San Luis,AZ,Yuma,32.4911,-114.7089,5.9943,2.1579
Watertown Town,MA,Middlesex,42.37,-71.1774,3.9001,1.404
Woodstock,GA,Cherokee,34.1026,-84.5091,4.4818,1.6134
Fair Oaks,VA,Fairfax,38.8653,-77.3586,4.2275,1.5219
Manhattan Beach,CA,Los Angeles,33.8894,-118.3967,5.1711,1.8616
San Juan Capistrano,CA,Orange,33.5008,-117.6544,5.4726,1.9701
Plainfield,IN,Hendricks,39.6954,-86.3716,4.0917,1.473
Owings Mills,MD,Baltimore,39.4115,-76.7913,4.1694,1.501
Meridian,MS,Lauderdale,32.3846,-88.6896,4.6393,1.6701
Cookeville,TN,Putnam,36.1482,-85.5109,4.2755,1.5392
Northbrook,IL,Cook,42.1292,-87.8352,3.7545,1.3516
Fair Lawn,NJ,Bergen,40.9359,-74.1177,4.0175,1.4463
Monroe,NC,Union,35.0063,-80.5596,4.5416,1.635
Richmond,KY,Madison,37.7307,-84.2925,4.2386,1.5259
University City,MO,St. Louis,38.6657,-90.3315,4.2585,1.5331
Parkland,FL,Broward,26.3219,-80.2533,4.9788,1.7924
Oswego,IL,Kendall,41.6834,-88.3372,3.9776,1.4319
Oildale,CA,Kern,35.4293,-119.0306,5.6404,2.0305
Graham,WA,Pierce,47.0322,-122.2827,3.6009,1.2963
Mason,OH,Warren,39.3571,-84.3023,4.0729,1.4662
Montgomery Village,MD,Montgomery,39.1788,-77.1954,4.0947,1.4741
Long Beach,NY,Nassau,40.5887,-73.666,4.1004,1.4761
Hinesville,GA,Liberty,31.8248,-81.6137,4.72,1.6992
Golden Glades,FL,Miami-Dade,25.9129,-80.2013,5.0915,1.8329
Del Rio,TX,Val Verde,29.3708,-100.8801,5.1465,1.8527
Goshen,IN,Elkhart,41.5743,-85.8309,3.8924,1.4013
University Place,WA,Pierce,47.2147,-122.5461,3.6009,1.2963
Butte,MT,Silver Bow,45.902,-112.6571,4.305,1.5498
Huntington Station,NY,Suffolk,40.8446,-73.405,4.1004,1.4761
Pleasant Hill,CA,Contra Costa,37.9539,-122.0759,4.8794,1.7566
Manitowoc,WI,Manitowoc,44.0991,-87.6812,3.718,1.3385
Fairborn,OH,Greene,39.801,-84.0094,4.0729,1.4662
San Dimas,CA,Los Angeles,34.1082,-117.809,5.8149,2.0934
Stow,OH,Summit,41.1765,-81.4344,3.775,1.359
McMinnville,OR,Yamhill,45.211,-123.1918,3.8231,1.3763
College Park,MD,Prince George's,38.996,-76.9337,4.345,1.5642
Kiryas Joel,NY,Orange,41.3411,-74.1667,3.8311,1.3792
Lakewood Ranch,FL,Manatee,27.4185,-82.3948,5.2308,1.8831
Pueblo West,CO,Pueblo,38.3465,-104.7246,5.0743,1.8267
Merritt Island,FL,Brevard,28.3139,-80.6708,4.92,1.7712
Lewiston,ID,Nez Perce,46.3934,-116.9933,4.0376,1.4535
Timberwood Park,TX,Bexar,29.6995,-98.4838,4.952,1.7827
Sahuarita,AZ,Pima,31.9323,-110.9654,5.8892,2.1201
Dakota Ridge,CO,Jefferson,39.6192,-105.1344,4.83,1.7388
Prairieville,LA,Ascension,30.3151,-90.9571,4.6605,1.6778
Redmond,OR,Deschutes,44.2612,-121.181,4.3402,1.5625
Lufkin,TX,Angelina,31.3217,-94.7277,4.637,1.6693
Pikesville,MD,Baltimore,39.3893,-76.702,4.1694,1.501
Eastpointe,MI,Macomb,42.4657,-82.9461,3.9174,1.4103
Deer Park,TX,Harris,29.6898,-95.1151,4.7376,1.7055
Cooper City,FL,Broward,26.0463,-80.2862,4.9788,1.7924
Westlake,OH,Cuyahoga,41.4524,-81.9294,3.775,1.359
Woodridge,IL,DuPage,41.737,-88.0409,3.9776,1.4319
Spanaway,WA,Pierce,47.0979,-122.4233,3.6009,1.2963
Valparaiso,IN,Porter,41.4783,-87.0506,3.9205,1.4114
American Fork,UT,Utah,40.3783,-111.7953,4.923,1.7723
Windsor,CO,Weld,40.469,-104.9198,4.8031,1.7291
Gadsden,AL,Etowah,34.0086,-86.0157,4.499,1.6196
Walla Walla,WA,Walla Walla,46.0671,-118.3368,4.2752,1.5391
New City,NY,Rockland,41.1542,-73.9912,3.9479,1.4212
Kearney,NE,Buffalo,40.7011,-99.0833,4.6653,1.6795
Leawood,KS,Johnson,38.9075,-94.6258,4.3755,1.5752
Baldwin,NY,Nassau,40.6511,-73.6075,4.1004,1.4761
Martinez,GA,Columbia,33.5209,-82.0985,4.6275,1.6659
Crown Point,IN,Lake,41.4143,-87.3457,3.9205,1.4114
Fallbrook,CA,San Diego,33.3693,-117.2259,5.4726,1.9701
Englewood,CO,Arapahoe,39.6468,-104.9942,4.9126,1.7685
East Lake,FL,Pinellas,28.1206,-82.6868,5.0641,1.8231
Goldsboro,NC,Wayne,35.3778,-77.9717,4.5289,1.6304
Ken Caryl,CO,Jefferson,39.577,-105.1144,4.83,1.7388
Canton,GA,Cherokee,34.2467,-84.4897,4.4818,1.6134
West Little River,FL,Miami-Dade,25.8571,-80.2367,5.0915,1.8329
Alabaster,AL,Shelby,33.2198,-86.8225,4.5741,1.6467
Bell,CA,Los Angeles,33.9801,-118.1798,5.1711,1.8616
Kennesaw,GA,Cobb,34.026,-84.6177,4.4818,1.6134
South Riding,VA,Loudoun,38.912,-77.5132,4.2275,1.5219
Menlo Park,CA,San Mateo,37.4685,-122.1673,4.8794,1.7566
Buenaventura Lakes,FL,Osceola,28.3349,-81.3539,4.9408,1.7787
Bethel Park,PA,Allegheny,40.3238,-80.0364,3.8614,1.3901
Petersburg,VA,Petersburg,37.2043,-77.3913,4.3699,1.5732
Cottonwood Heights,UT,Salt Lake,40.6137,-111.8144,4.923,1.7723
Foster City,CA,San Mateo,37.5553,-122.2659,4.8794,1.7566
Uniondale,NY,Nassau,40.7176,-73.5947,4.1004,1.4761
Statesboro,GA,Bulloch,32.4375,-81.7751,4.7039,1.6934
Gillette,WY,Campbell,44.2752,-105.4982,4.326,1.5574
Brooklyn Center,MN,Hennepin,45.0681,-93.3162,3.9347,1.4165
Los Gatos,CA,Santa Clara,37.2304,-121.9562,5.4264,1.9535
Glendale Heights,IL,DuPage,41.9196,-88.0785,3.9776,1.4319
Kingman,AZ,Mohave,35.217,-114.0105,5.8056,2.09
Chester,PA,Delaware,39.8456,-75.3718,4.1793,1.5045
Harker Heights,TX,Bell,31.0572,-97.6446,4.8957,1.7625
Dana Point,CA,Orange,33.4733,-117.6967,5.4726,1.9701
Spring Valley,NY,Rockland,41.1151,-74.0486,3.8311,1.3792
Syracuse,UT,Davis,41.0859,-112.0698,4.735,1.7046
St. Charles,IL,Kane,41.9193,-88.3109,3.9776,1.4319
Fair Oaks,CA,Sacramento,38.6504,-121.2496,5.333,1.9199
Sherwood,AR,Pulaski,34.8507,-92.2029,4.4586,1.6051
Kaysville,UT,Davis,41.029,-111.9456,4.8707,1.7535
Des Moines,WA,King,47.3914,-122.3156,3.6009,1.2963
Goleta,CA,Santa Barbara,34.4361,-119.8594,5.5726,2.0061
Cibolo,TX,Guadalupe,29.5634,-98.2115,4.952,1.7827
Andover,MN,Anoka,45.2571,-93.3265,3.9347,1.4165
Rochester,NH,Strafford,43.299,-70.9787,3.8342,1.3803
Helena,MT,Lewis and Clark,46.5965,-112.0202,4.076,1.4674
Elk Grove Village,IL,Cook,42.0064,-87.9921,3.7545,1.3516
Spring Valley,CA,San Diego,32.7317,-116.9766,5.8447,2.1041
Garfield,NJ,Bergen,40.8791,-74.1085,4.0175,1.4463
Ferry Pass,FL,Escambia,30.5205,-87.1899,4.8569,1.7485
Savage,MN,Scott,44.7545,-93.3632,3.9987,1.4395
Beverly Hills,CA,Los Angeles,34.0786,-118.4021,5.6778,2.044
Desert Hot Springs,CA,Riverside,33.955,-116.5429,5.8457,2.1045
Clearfield,UT,Davis,41.103,-112.0238,4.735,1.7046
Wheat Ridge,CO,Jefferson,39.7728,-105.1028,4.83,1.7388
North Olmsted,OH,Cuyahoga,41.4149,-81.919,3.775,1.359
Massillon,OH,Stark,40.7838,-81.5254,3.8937,1.4017
Weatherford,TX,Parker,32.7536,-97.7723,4.9167,1.77
Pasadena,MD,Anne Arundel,39.1552,-76.5537,4.1694,1.501
Nacogdoches,TX,Nacogdoches,31.6134,-94.6528,4.637,1.6693
Juneau,AK,Juneau,58.4546,-134.1739,2.4457,0.8805
O'Fallon,IL,St. Clair,38.5974,-89.9148,4.2795,1.5406
Pekin,IL,Tazewell,40.5678,-89.6251,4.1026,1.4769
Florence,KY,Boone,38.9899,-84.6471,4.1444,1.492
Canyon Lake,TX,Comal,29.8761,-98.2611,4.952,1.7827
Rome,NY,Oneida,43.226,-75.4909,3.6217,1.3038
Aiken,SC,Aiken,33.5303,-81.7271,4.6448,1.6721
Marrero,LA,Jefferson,29.8871,-90.1126,4.7256,1.7012
Pullman,WA,Whitman,46.7336,-117.168,4.0376,1.4535
Franklin Square,NY,Nassau,40.7002,-73.6775,4.1004,1.4761
Long Branch,NJ,Monmouth,40.2965,-73.9915,4.1004,1.4761
San Pablo,CA,Contra Costa,37.9629,-122.3426,4.8794,1.7566
Centereach,NY,Suffolk,40.8681,-73.0821,4.1004,1.4761
Maryville,TN,Blount,35.7468,-83.9789,4.4037,1.5853
Cleburne,TX,Johnson,32.3568,-97.4151,4.9167,1.77
Atwater,CA,Merced,37.3529,-120.5959,5.3991,1.9437
Carlsbad,NM,Eddy,32.401,-104.2388,5.7221,2.06
Duluth,GA,Gwinnett,34.0053,-84.1492,4.4818,1.6134
Laramie,WY,Albany,41.3099,-105.6085,4.7133,1.6968
Bangor,ME,Penobscot,44.8323,-68.7906,3.7795,1.3606
Dania Beach,FL,Broward,26.0593,-80.1637,4.9788,1.7924
Garner,NC,Wake,35.6936,-78.6181,4.5425,1.6353
West Bend,WI,Washington,43.4173,-88.1818,3.9025,1.4049
Naugatuck,CT,Naugatuck Valley,41.489,-73.0518,3.9479,1.4212
Mundelein,IL,Lake,42.2693,-88.0102,3.9446,1.4201
Holladay,UT,Salt Lake,40.66,-111.8226,4.923,1.7723
Lawndale,CA,Los Angeles,33.8884,-118.3531,5.1711,1.8616
Lake Magdalene,FL,Hillsborough,28.0875,-82.4791,5.0641,1.8231
Oak Ridge,TN,Anderson,35.9639,-84.2938,4.3995,1.5838
Milford Mill,MD,Baltimore,39.3444,-76.7668,4.1694,1.501
Prosper,TX,Collin,33.2394,-96.8087,4.7418,1.707
Oceanside,NY,Nassau,40.6328,-73.6364,4.1004,1.4761
Cornelius,NC,Mecklenburg,35.4724,-80.8813,4.5416,1.635
Shawnee,OK,Pottawatomie,35.3531,-96.9647,4.6465,1.6727
New Bern,NC,Craven,35.0955,-77.0723,4.5289,1.6304
Opelika,AL,Lee,32.6612,-85.3769,4.6596,1.6775
Ithaca,NY,Tompkins,42.4442,-76.5032,3.7072,1.3346
Nicholasville,KY,Jessamine,37.8906,-84.5668,4.2386,1.5259
Redan,GA,DeKalb,33.7394,-84.1644,4.5579,1.6408
Bel Air North,MD,Harford,39.5543,-76.3732,4.1694,1.501
Port Chester,NY,Westchester,41.0051,-73.668,3.9479,1.4212
La Verne,CA,Los Angeles,34.1207,-117.7703,5.8149,2.0934
LaGrange,GA,Troup,33.0274,-85.0384,4.5674,1.6443
Laguna Hills,CA,Orange,33.5918,-117.6991,5.4726,1.9701
Middle River,MD,Baltimore,39.3436,-76.4253,4.1694,1.501
Orcutt,CA,Santa Barbara,34.8691,-120.4222,5.1871,1.8674
Los Altos,CA,Santa Clara,37.3684,-122.0965,4.8794,1.7566
West Falls Church,VA,Fairfax,38.8648,-77.1878,4.2275,1.5219
North Royalton,OH,Cuyahoga,41.3138,-81.745,3.775,1.359
Sterling,VA,Loudoun,39.0052,-77.405,4.0947,1.4741
Hopkinsville,KY,Christian,36.8381,-87.4775,4.3403,1.5625
Springfield,VA,Fairfax,38.781,-77.1839,4.2275,1.5219
Alamogordo,NM,Otero,32.8837,-105.9625,5.7707,2.0775
Burlingame,CA,San Mateo,37.5859,-122.3667,4.8794,1.7566
Bethany,OR,Washington,45.5614,-122.837,3.8231,1.3763
Lakeside,FL,Clay,30.1356,-81.7674,4.7861,1.723
Ballwin,MO,St. Louis,38.595,-90.55,4.2585,1.5331
SeaTac,WA,King,47.4444,-122.2986,3.6009,1.2963
West Odessa,TX,Ector,31.8389,-102.5003,5.6935,2.0497
North Chicago,IL,Lake,42.3172,-87.8595,3.7545,1.3516
Westfield,NJ,Union,40.6516,-74.3432,4.0175,1.4463
Zionsville,IN,Boone,39.9897,-86.3182,4.0917,1.473
Santa Paula,CA,Ventura,34.3545,-119.0656,5.5726,2.0061
Southlake,TX,Tarrant,32.9545,-97.1503,4.9167,1.77
Saratoga,CA,Santa Clara,37.2684,-122.0263,4.8794,1.7566
Northport,AL,Tuscaloosa,33.2586,-87.5993,4.5827,1.6498
Newark,DE,New Castle,39.6776,-75.7576,4.1793,1.5045
Niles,IL,Cook,42.0278,-87.8099,3.7545,1.3516
Eagle,ID,Ada,43.7223,-116.3866,4.5942,1.6539
Gurnee,IL,Lake,42.3708,-87.9392,3.7545,1.3516
Miami Lakes,FL,Miami-Dade,25.9125,-80.3214,5.0915,1.8329
Bay Shore,NY,Suffolk,40.7288,-73.2495,4.1004,1.4761
Parkville,MD,Baltimore,39.3832,-76.5519,4.1694,1.501
San Carlos,CA,San Mateo,37.4982,-122.2677,4.8794,1.7566
North Tonawanda,NY,Niagara,43.0457,-78.8659,3.6896,1.3283
Lawrenceville,GA,Gwinnett,33.9523,-83.9932,4.5944,1.654
Princeton,NJ,Mercer,40.3562,-74.6693,4.0175,1.4463
New Smyrna Beach,FL,Volusia,29.0249,-80.9652,4.9536,1.7833
Erie,CO,Weld,40.0404,-105.0399,4.7164,1.6979
Austintown,OH,Mahoning,41.0932,-80.7405,3.8039,1.3694
Sanford,NC,Lee,35.4875,-79.177,4.5281,1.6301
Eldersburg,MD,Carroll,39.4041,-76.9528,4.1694,1.501
Seguin,TX,Guadalupe,29.5891,-97.9676,4.9027,1.765
Liberty,MO,Clay,39.2394,-94.4191,4.3191,1.5549
Bella Vista,AR,Benton,36.4667,-94.2707,4.5144,1.6252
Drexel Heights,AZ,Pima,32.1453,-111.048,5.9351,2.1366
Highland Park,IL,Lake,42.1823,-87.8104,3.7545,1.3516
Middletown,NY,Orange,41.4459,-74.4236,3.8311,1.3792
Bowling Green,OH,Wood,41.3776,-83.6495,3.9523,1.4228
Granger,IN,St. Joseph,41.7374,-86.1348,3.8863,1.3991
Monterey,CA,Monterey,36.5919,-121.8808,5.3507,1.9263
Winter Park,FL,Orange,28.5989,-81.3442,4.9408,1.7787
East Niles,CA,Kern,35.3683,-118.9225,5.6526,2.0349
Chamblee,GA,DeKalb,33.8842,-84.3007,4.5579,1.6408
Vero Beach South,FL,Indian River,27.6132,-80.4163,5.0288,1.8104
Southgate,MI,Wayne,42.2047,-83.2057,3.8465,1.3847
Banning,CA,Riverside,33.946,-116.8992,5.8457,2.1045
Galesburg,IL,Knox,40.9506,-90.3763,4.1225,1.4841
Algonquin,IL,McHenry,42.1629,-88.3159,3.9446,1.4201
Gloucester,MA,Essex,42.626,-70.6897,3.925,1.413
Fitchburg,WI,Dane,42.9859,-89.4255,3.984,1.4342
Fleming Island,FL,Clay,30.0988,-81.7124,4.7861,1.723
Raytown,MO,Jackson,38.9944,-94.4641,4.3755,1.5752
San Lorenzo,CA,Alameda,37.6733,-122.1332,4.8794,1.7566
Atascadero,CA,San Luis Obispo,35.4827,-120.6858,5.5928,2.0134
Morrisville,NC,Wake,35.8368,-78.8348,4.5425,1.6353
Fridley,MN,Anoka,45.0841,-93.2595,3.9347,1.4165
Summerlin South,NV,Clark,36.1242,-115.3324,5.6517,2.0346
Paragould,AR,Greene,36.0555,-90.5149,4.4462,1.6006
Hazleton,PA,Luzerne,40.9505,-75.9725,3.9492,1.4217
Rahway,NJ,Union,40.6077,-74.2807,4.0175,1.4463
Lathrop,CA,San Joaquin,37.809,-121.3131,5.4264,1.9535
Matthews,NC,Mecklenburg,35.1195,-80.7101,4.5416,1.635
Laurel,MD,Prince George's,39.0949,-76.8622,4.1694,1.501
Schererville,IN,Lake,41.4861,-87.4442,3.9205,1.4114
Hobart,IN,Lake,41.514,-87.2729,3.9205,1.4114
Burton,MI,Genesee,42.9974,-83.6175,3.8465,1.3847
Eastern Goleta Valley,CA,Santa Barbara,34.4448,-119.7879,5.5726,2.0061
East Palo Alto,CA,San Mateo,37.4671,-122.1352,4.8794,1.7566
Central,LA,East Baton Rouge,30.5593,-91.0369,4.6944,1.69
Hutto,TX,Williamson,30.5396,-97.544,4.9071,1.7666
Fountain,CO,El Paso,38.6886,-104.6829,5.0743,1.8267
Garfield Heights,OH,Cuyahoga,41.4199,-81.6038,3.775,1.359
Oak Park,MI,Oakland,42.4649,-83.1824,3.8465,1.3847
Greenville,MS,Washington,33.385,-91.0514,4.5898,1.6523
Melrose,MA,Middlesex,42.4556,-71.059,3.9001,1.404
Texarkana,AR,Miller,33.436,-93.9959,4.5295,1.6306
Golden Gate,FL,Collier,26.1844,-81.7031,5.1341,1.8483
Brownsburg,IN,Hendricks,39.8337,-86.383,4.0917,1.473
Bluffton,SC,Beaufort,32.2135,-80.9316,4.7988,1.7276
Crofton,MD,Anne Arundel,39.0144,-76.68,4.1694,1.501
Carney,MD,Baltimore,39.405,-76.5235,4.1694,1.501
Suisun City,CA,Solano,38.2473,-122.0091,5.268,1.8965
Anderson,SC,Anderson,34.5211,-82.6478,4.6288,1.6664
Jacksonville,AR,Pulaski,34.8807,-92.1304,4.4586,1.6051
Kirkwood,MO,St. Louis,38.5788,-90.4203,4.2585,1.5331
Sun City Center,FL,Hillsborough,27.715,-82.3569,5.2308,1.8831
Magna,UT,Salt Lake,40.7634,-112.1599,4.92,1.7712
Oakleaf Plantation,FL,Clay,30.1689,-81.8337,4.7861,1.723
Perry Hall,MD,Baltimore,39.4068,-76.478,4.1694,1.501
East Lake-Orient Park,FL,Hillsborough,27.997,-82.3653,5.2308,1.8831
Drexel Hill,PA,Delaware,39.9495,-75.3038,4.1793,1.5045
Orchards,WA,Clark,45.689,-122.5306,3.8231,1.3763
Washington,UT,Washington,37.1303,-113.4878,5.4492,1.9617
Shaker Heights,OH,Cuyahoga,41.4744,-81.5496,3.775,1.359
McDonough,GA,Henry,33.4397,-84.1505,4.5579,1.6408
Burbank,IL,Cook,41.7444,-87.7686,3.9205,1.4114
Englewood,NJ,Bergen,40.8917,-73.9736,4.1004,1.4761
Danville,IL,Vermilion,40.1426,-87.6111,4.0377,1.4536
Casselberry,FL,Seminole,28.6624,-81.3217,4.9408,1.7787
Mehlville,MO,St. Louis,38.5018,-90.3149,4.2585,1.5331
Lake in the Hills,IL,McHenry,42.1913,-88.3477,3.9446,1.4201
Laplace,LA,St. John the Baptist,30.0731,-90.4758,4.6605,1.6778
Russellville,AR,Pope,35.2762,-93.1383,4.4582,1.605
Greenville,TX,Hunt,33.1116,-96.1099,4.7418,1.707
Haines City,FL,Polk,28.1102,-81.6157,4.9408,1.7787
Easton,PA,Northampton,40.6858,-75.2209,3.9492,1.4217
Ruskin,FL,Hillsborough,27.7065,-82.4209,5.2308,1.8831
Stockbridge,GA,Henry,33.5254,-84.2295,4.5579,1.6408
Jeffersontown,KY,Jefferson,38.2049,-85.5701,4.1544,1.4956
Bixby,OK,Tulsa,35.9454,-95.8776,4.5489,1.6376
Independence,KY,Kenton,38.951,-84.5492,4.1444,1.492
Harrison,NY,Westchester,41.0236,-73.7193,3.9479,1.4212
Lansing,IL,Cook,41.5648,-87.5462,3.9205,1.4114
Jamestown,NY,Chautauqua,42.0976,-79.2367,3.851,1.3864
Statesville,NC,Iredell,35.7842,-80.8713,4.5416,1.635
Madison Heights,MI,Oakland,42.5073,-83.1034,3.8465,1.3847
Monroeville,PA,Allegheny,40.4262,-79.7605,3.8265,1.3775
Enterprise,AL,Coffee,31.3275,-85.8463,4.7502,1.7101
Frankfort,KY,Franklin,38.1924,-84.8643,4.1444,1.492
South Laurel,MD,Prince George's,39.0603,-76.8456,4.1694,1.501
Forest Hills,MI,Kent,42.9577,-85.4895,3.8138,1.373
Short Pump,VA,Henrico,37.6549,-77.6201,4.3699,1.5732
Allen Park,MI,Wayne,42.2595,-83.2107,3.8465,1.3847
Aberdeen,SD,Brown,45.4649,-98.4686,4.2347,1.5245
New Iberia,LA,Iberia,30.0049,-91.8202,4.6944,1.69
Clarksburg,MD,Montgomery,39.2246,-77.2659,4.0947,1.4741
Glen Ellyn,IL,DuPage,41.8666,-88.0629,3.9776,1.4319
Monsey,NY,Rockland,41.1181,-74.0682,3.8311,1.3792
Northampton,MA,Hampshire,42.3266,-72.6745,3.8491,1.3857
Temescal Valley,CA,Riverside,33.7581,-117.4677,5.4726,1.9701
Bergenfield,NJ,Bergen,40.9236,-73.9982,4.1004,1.4761
Walnut,CA,Los Angeles,34.0334,-117.8593,5.8149,2.0934
Eagle Pass,TX,Maverick,28.7125,-100.484,5.2576,1.8927
Henderson,KY,Henderson,37.8397,-87.5798,4.3002,1.5481
Glen Cove,NY,Nassau,40.8709,-73.6287,4.1004,1.4761
Ridgecrest,CA,Kern,35.6308,-117.6622,5.8129,2.0926
Maryland Heights,MO,St. Louis,38.7189,-90.4749,4.2585,1.5331
Converse,TX,Bexar,29.5091,-98.3084,4.952,1.7827
Oakdale,MN,Washington,44.9876,-92.9641,3.9651,1.4274
Twentynine Palms,CA,San Bernardino,34.1478,-116.0659,5.9285,2.1343
Lake Jackson,TX,Brazoria,29.0516,-95.4521,4.7376,1.7055
Garden City,KS,Finney,37.9753,-100.8527,5.0857,1.8309
Maple Valley,WA,King,47.3659,-122.0368,3.6009,1.2963
Daphne,AL,Baldwin,30.6263,-87.8816,4.8569,1.7485
Hamtramck,MI,Wayne,42.3954,-83.0559,3.8465,1.3847
Sachse,TX,Dallas,32.9726,-96.5793,4.7744,1.7188
Belmont,CA,San Mateo,37.5154,-122.2953,4.8794,1.7566
Rockledge,FL,Brevard,28.3203,-80.736,4.92,1.7712
Tualatin,OR,Washington,45.3772,-122.7748,3.8231,1.3763
Wilmette,IL,Cook,42.0771,-87.7282,3.7545,1.3516
Williston,ND,Williams,48.1814,-103.6364,4.0143,1.4451
Ramsey,MN,Anoka,45.2617,-93.4494,3.9347,1.4165
Chaska,MN,Carver,44.8164,-93.6091,3.9987,1.4395
Williamsport,PA,Lycoming,41.2399,-77.037,3.8182,1.3746
Immokalee,FL,Collier,26.4253,-81.4251,5.1341,1.8483
Dodge City,KS,Ford,37.7611,-100.0182,5.0857,1.8309
Clinton,MS,Hinds,32.354,-90.3403,4.6853,1.6867
Huntley,IL,McHenry,42.1599,-88.433,3.9446,1.4201
Mount Pleasant,WI,Racine,42.7129,-87.8876,3.7545,1.3516
Tysons,VA,Fairfax,38.9215,-77.2273,4.2275,1.5219
Reisterstown,MD,Baltimore,39.455,-76.814,4.1694,1.501
Prior Lake,MN,Scott,44.7246,-93.4419,3.9987,1.4395
New London,CT,Southeastern Connecticut,41.3502,-72.1022,4.0035,1.4413
Madison,MS,Madison,32.4738,-90.13,4.6853,1.6867
Homewood,AL,Jefferson,33.4619,-86.809,4.5741,1.6467
Fortuna Foothills,AZ,Yuma,32.6616,-114.3974,5.9943,2.1579
Marion,IN,Grant,40.5497,-85.6604,4.0317,1.4514
Millville,NJ,Cumberland,39.3903,-75.0561,4.1793,1.5045
Marshalltown,IA,Marshall,42.0343,-92.9068,4.1215,1.4837
McHenry,IL,McHenry,42.3387,-88.2932,3.9446,1.4201
Lemon Grove,CA,San Diego,32.7331,-117.0344,5.0458,1.8165
Crestview,FL,Okaloosa,30.7477,-86.5785,4.8094,1.7314
Mililani Town,HI,Honolulu,21.4465,-158.0147,5.9723,2.15
Chicago Heights,IL,Cook,41.51,-87.6345,3.9205,1.4114
Kent,OH,Portage,41.149,-81.361,3.775,1.359
Green,OH,Summit,40.9483,-81.4757,3.8937,1.4017
Alvin,TX,Brazoria,29.3872,-95.2938,4.7376,1.7055
Balch Springs,TX,Dallas,32.7194,-96.6151,4.7744,1.7188
Neenah,WI,Winnebago,44.1669,-88.4767,3.843,1.3835
Deer Park,NY,Suffolk,40.7623,-73.3218,4.1004,1.4761
Ilchester,MD,Howard,39.2187,-76.7683,4.1694,1.501
Mason City,IA,Cerro Gordo,43.1487,-93.1997,4.0907,1.4727
Citrus Park,FL,Hillsborough,28.073,-82.5628,5.0641,1.8231
Pearl,MS,Rankin,32.273,-90.0918,4.6853,1.6867
New Lenox,IL,Will,41.5095,-87.9703,3.9205,1.4114
Kahului,HI,Maui,20.8715,-156.4603,5.9226,2.1321
Fremont,NE,Dodge,41.4395,-96.4873,4.3532,1.5672
Holbrook,NY,Suffolk,40.7944,-73.07,4.1004,1.4761
Garden City,MI,Wayne,42.3244,-83.3412,3.8465,1.3847
Oak Forest,IL,Cook,41.6054,-87.7527,3.9205,1.4114
Ewa Gentry,HI,Honolulu,21.3344,-158.0262,5.9723,2.15
West Islip,NY,Suffolk,40.7041,-73.2954,4.1004,1.4761
Kernersville,NC,Forsyth,36.1065,-80.0842,4.4248,1.5929
West Linn,OR,Clackamas,45.367,-122.6399,3.8231,1.3763
Lindenhurst,NY,Suffolk,40.6858,-73.371,4.1004,1.4761
Thomasville,NC,Davidson,35.8813,-80.0807,4.5416,1.635
Asheboro,NC,Randolph,35.7158,-79.8127,4.5281,1.6301
Lochearn,MD,Baltimore,39.3461,-76.7307,4.1694,1.501
Benicia,CA,Solano,38.0725,-122.1526,5.268,1.8965
Leisure City,FL,Miami-Dade,25.4935,-80.4363,5.0915,1.8329
Plum,PA,Allegheny,40.5024,-79.7495,3.8265,1.3775
Granite City,IL,Madison,38.7296,-90.1268,4.2585,1.5331
Wooster,OH,Wayne,40.8172,-81.9336,3.8937,1.4017
Gladstone,MO,Clay,39.2134,-94.5592,4.3191,1.5549
Lemoore,CA,Kings,36.2949,-119.7983,5.4624,1.9665
Wheeling,WV,Ohio,40.0752,-80.6951,3.8614,1.3901
Union City,GA,Fulton,33.5942,-84.5629,4.5579,1.6408
Paducah,KY,McCracken,37.0711,-88.644,4.3248,1.5569
Shoreview,MN,Ramsey,45.0842,-93.1358,3.9347,1.4165
Clayton,NC,Johnston,35.659,-78.4498,4.5425,1.6353
Temple Terrace,FL,Hillsborough,28.0436,-82.3773,5.0641,1.8231
Ives Estates,FL,Miami-Dade,25.9632,-80.183,5.0915,1.8329
West Melbourne,FL,Brevard,28.0694,-80.6736,4.92,1.7712
Vernon Hills,IL,Lake,42.234,-87.9608,3.7545,1.3516
Palm Springs,FL,Palm Beach,26.6348,-80.0969,4.9788,1.7924
Auburn,NY,Cayuga,42.9338,-76.5685,3.7072,1.3346
South Portland,ME,Cumberland,43.631,-70.2895,3.8342,1.3803
Horn Lake,MS,DeSoto,34.9512,-90.0501,4.5718,1.6458
Sun City West,AZ,Maricopa,33.6695,-112.3573,5.8997,2.1239
Edwardsville,IL,Madison,38.7922,-89.9874,4.2795,1.5406
Carrollton,GA,Carroll,33.5818,-85.0838,4.5674,1.6443
Plainview,NY,Nassau,40.7832,-73.4732,4.1004,1.4761
South Pasadena,CA,Los Angeles,34.1103,-118.1573,5.6778,2.044
Paramus,NJ,Bergen,40.9455,-74.0712,4.0175,1.4463
Superior,WI,Douglas,46.6941,-92.0823,3.837,1.3813
Sanger,CA,Fresno,36.699,-119.5575,5.4624,1.9665
Cabot,AR,Lonoke,34.9766,-92.0274,4.4586,1.6051
Mint Hill,NC,Mecklenburg,35.1783,-80.6528,4.5416,1.635
Eureka,CA,Humboldt,40.7943,-124.1564,4.3991,1.5837
Brawley,CA,Imperial,32.9783,-115.5287,5.9474,2.1411
Shirley,NY,Suffolk,40.7936,-72.8748,4.0861,1.471
Troy,OH,Miami,40.0437,-84.2186,4.0432,1.4556
Elmira,NY,Chemung,42.0938,-76.8097,3.7072,1.3346
Apollo Beach,FL,Hillsborough,27.7618,-82.4003,5.2308,1.8831
Owatonna,MN,Steele,44.0912,-93.2312,3.9987,1.4395
Camas,WA,Clark,45.6005,-122.4304,3.8231,1.3763
East Chicago,IN,Lake,41.6469,-87.4545,3.9205,1.4114
Batavia,IL,Kane,41.8479,-88.3109,3.9776,1.4319
Windsor,CA,Sonoma,38.5422,-122.8089,5.268,1.8965
Wasco,CA,Kern,35.5938,-119.3671,5.6404,2.0305
South Salt Lake,UT,Salt Lake,40.7057,-111.8986,4.923,1.7723
Wright,FL,Okaloosa,30.4445,-86.6419,4.8094,1.7314
Pooler,GA,Chatham,32.1043,-81.2569,4.7039,1.6934
Woodburn,OR,Marion,45.1472,-122.8603,3.8231,1.3763
Athens,AL,Limestone,34.7843,-86.9503,4.499,1.6196
Forest Grove,OR,Washington,45.5243,-123.1097,3.8231,1.3763
Imperial Beach,CA,San Diego,32.5693,-117.118,5.0458,1.8165
Austin,MN,Mower,43.6721,-92.9784,4.0132,1.4448
Lockport,IL,Will,41.5906,-88.0293,3.9776,1.4319
Terrytown,LA,Jefferson,29.9014,-90.0279,4.7256,1.7012
Medina,OH,Medina,41.1358,-81.8695,3.775,1.359
Woodstock,IL,McHenry,42.3096,-88.4353,3.9446,1.4201
Winona,MN,Winona,44.0505,-91.6684,3.9511,1.4224
Northdale,FL,Hillsborough,28.1058,-82.5263,5.0641,1.8231
Key West,FL,Monroe,24.5642,-81.7775,5.4699,1.9692
Franklin,IN,Johnson,39.4948,-86.0544,4.0917,1.473
Keystone,FL,Hillsborough,28.1312,-82.5999,5.0641,1.8231
Ridgewood,NJ,Bergen,40.9821,-74.1127,4.0175,1.4463
Hercules,CA,Contra Costa,38.0064,-122.2564,5.268,1.8965
Fort Mill,SC,York,35.0061,-80.9389,4.5416,1.635
Cave Spring,VA,Roanoke,37.2254,-80.0072,4.2238,1.5206
Rosemount,MN,Dakota,44.7466,-93.0661,3.9987,1.4395
Wilsonville,OR,Clackamas,45.3109,-122.7702,3.8231,1.3763
Fairland,MD,Montgomery,39.0803,-76.9527,4.1694,1.501
Lodi,NJ,Bergen,40.8784,-74.0814,4.0175,1.4463
Palm City,FL,Martin,27.1735,-80.2862,5.0288,1.8104
Big Spring,TX,Howard,32.2389,-101.4799,5.5369,1.9933
Columbine,CO,Jefferson,39.5879,-105.0694,4.83,1.7388
Elk River,MN,Sherburne,45.3314,-93.567,3.9347,1.4165
Grandview,MO,Jackson,38.8802,-94.5227,4.3755,1.5752
Bessemer,AL,Jefferson,33.3712,-86.9728,4.5741,1.6467
Norfolk,NE,Madison,42.0324,-97.4217,4.3504,1.5661
Colleyville,TX,Tarrant,32.8913,-97.1486,4.9167,1.77
Jenks,OK,Tulsa,35.9981,-95.9736,4.5489,1.6376
El Cerrito,CA,Contra Costa,37.9196,-122.3025,4.8794,1.7566
Chanhassen,MN,Carver,44.8546,-93.5621,3.9987,1.4395
Suitland,MD,Prince George's,38.8492,-76.9225,4.345,1.5642
Inkster,MI,Wayne,42.2935,-83.3148,3.8465,1.3847
Fort Washington,MD,Prince George's,38.7339,-77.0069,4.2275,1.5219
Marysville,OH,Union,40.2279,-83.3595,4.0027,1.441
Rockville Centre,NY,Nassau,40.6643,-73.6383,4.1004,1.4761
Florence,AZ,Pinal,33.059,-111.4209,5.8669,2.1121
Palm River-Clair Mel,FL,Hillsborough,27.9239,-82.3791,5.2308,1.8831
Oxford,MS,Lafayette,34.3627,-89.5336,4.5348,1.6325
Venice,FL,Sarasota,27.1184,-82.4137,5.2308,1.8831
Pace,FL,Santa Rosa,30.6188,-87.1667,4.8569,1.7485
West Chicago,IL,DuPage,41.896,-88.2253,3.9776,1.4319
Trussville,AL,Jefferson,33.6405,-86.5815,4.5741,1.6467
Tumwater,WA,Thurston,46.9891,-122.9175,3.6386,1.3099
Moscow,ID,Latah,46.7308,-116.9986,4.0376,1.4535
Staunton,VA,Staunton,38.1593,-79.0611,4.1197,1.4831
Derby,KS,Sedgwick,37.5571,-97.2551,4.7289,1.7024
Stevens Point,WI,Portage,44.5241,-89.5507,3.8678,1.3924
Okemos,MI,Ingham,42.7057,-84.4135,3.8391,1.3821
Cliffside Park,NJ,Bergen,40.8222,-73.9879,4.1004,1.4761
Xenia,OH,Greene,39.6829,-83.9413,4.0606,1.4618
Fort Hood,TX,Coryell,31.1357,-97.7834,4.8957,1.7625
Kalispell,MT,Flathead,48.2153,-114.3274,3.6798,1.3247
South Bradenton,FL,Manatee,27.4612,-82.5822,5.2308,1.8831
Mercer Island,WA,King,47.5661,-122.232,3.6009,1.2963
Silver Springs Shores,FL,Marion,29.1126,-82.0149,4.8675,1.7523
West Whittier-Los Nietos,CA,Los Angeles,33.9759,-118.0689,5.1711,1.8616
Peekskill,NY,Westchester,41.2884,-73.9227,3.9479,1.4212
Belvidere,IL,Boone,42.2543,-88.8649,3.9446,1.4201
Newberg,OR,Yamhill,45.3075,-122.9601,3.8231,1.3763
Holt,MI,Ingham,42.6416,-84.5308,3.8391,1.3821
De Pere,WI,Brown,44.4308,-88.0785,3.843,1.3835
Salem,VA,Salem,37.2864,-80.0555,4.2238,1.5206
Ottumwa,IA,Wapello,41.0195,-92.4186,4.2026,1.5129
Tarpon Springs,FL,Pinellas,28.1493,-82.7623,5.0641,1.8231
Galt,CA,Sacramento,38.2698,-121.3004,5.333,1.9199
Hazelwood,MO,St. Louis,38.7931,-90.3899,4.2585,1.5331
Norco,CA,Riverside,33.9252,-117.5498,5.4726,1.9701
Lafayette,CA,Contra Costa,37.8919,-122.1189,4.8794,1.7566
Mill Creek East,WA,Snohomish,47.8361,-122.1877,3.6009,1.2963
Caledonia,WI,Racine,42.7986,-87.8762,3.7545,1.3516
Forney,TX,Kaufman,32.744,-96.4529,4.7744,1.7188
Sebastian,FL,Indian River,27.7822,-80.4819,5.0288,1.8104
Kingsville,TX,Kleberg,27.5094,-97.861,4.9197,1.7711
Elkridge,MD,Howard,39.1941,-76.7428,4.1694,1.501
Reedley,CA,Fresno,36.5988,-119.4471,5.4624,1.9665
Barstow,CA,San Bernardino,34.8661,-117.0471,5.8149,2.0934
Avon Lake,OH,Lorain,41.4944,-82.0159,3.8516,1.3866
Allendale,MI,Ottawa,42.9845,-85.9499,3.8138,1.373
University Park,TX,Dallas,32.8506,-96.7937,4.7744,1.7188
Fish Hawk,FL,Hillsborough,27.8511,-82.2164,5.2308,1.8831
Melrose Park,IL,Cook,41.903,-87.8636,3.9205,1.4114
Walker,MI,Kent,42.9853,-85.7446,3.8138,1.373
Barberton,OH,Summit,41.0095,-81.6037,3.775,1.359
Carteret,NJ,Middlesex,40.5849,-74.2284,4.0175,1.4463
Moses Lake,WA,Grant,47.1279,-119.2759,4.163,1.4987
Brandon,MS,Rankin,32.2778,-89.9896,4.6297,1.6667
North Tustin,CA,Orange,33.7636,-117.7947,5.4726,1.9701
Conway,SC,Horry,33.8401,-79.0431,4.6282,1.6662
Edgewood,MD,Harford,39.419,-76.2964,4.1694,1.501
Dickinson,ND,Stark,46.8918,-102.7925,4.1706,1.5014
Corsicana,TX,Navarro,32.0824,-96.4665,4.7744,1.7188
Mequon,WI,Ozaukee,43.2352,-87.9839,3.7251,1.341
Hastings,NE,Adams,40.5961,-98.39,4.5982,1.6554
Newport,RI,Newport,41.4801,-71.3203,4.1025,1.4769
Muskego,WI,Waukesha,42.886,-88.1291,3.9446,1.4201
Romulus,MI,Wayne,42.2237,-83.366,3.8465,1.3847
Seal Beach,CA,Orange,33.7542,-118.0714,5.1711,1.8616
Waukee,IA,Dallas,41.5985,-93.8869,4.2286,1.5223
Maywood,CA,Los Angeles,33.9886,-118.1877,5.1711,1.8616
Norton Shores,MI,Muskegon,43.1621,-86.2519,3.7807,1.3611
Sandusky,OH,Erie,41.4468,-82.7024,3.8516,1.3866
Sugar Hill,GA,Gwinnett,34.108,-84.0558,4.4818,1.6134
Morton Grove,IL,Cook,42.0423,-87.789,3.7545,1.3516
Westchase,FL,Hillsborough,28.0597,-82.611,5.0641,1.8231
Loma Linda,CA,San Bernardino,34.045,-117.2498,5.8149,2.0934
Denison,TX,Grayson,33.7672,-96.5808,4.7418,1.707
Watertown,NY,Jefferson,43.9734,-75.9094,3.6217,1.3038
Wyandotte,MI,Wayne,42.2113,-83.1558,3.8465,1.3847
Perrysburg,OH,Wood,41.5377,-83.6413,3.9523,1.4228
Fort Dodge,IA,Webster,42.5098,-94.1751,4.1894,1.5082
Kuna,ID,Ada,43.488,-116.3933,4.5942,1.6539
Arnold,MD,Anne Arundel,39.0437,-76.4974,4.1694,1.501
Carolina Forest,SC,Horry,33.7651,-78.913,4.6748,1.6829
Avon,OH,Lorain,41.4485,-82.0187,3.8516,1.3866
Riverbank,CA,Stanislaus,37.726,-120.9433,5.3991,1.9437
Bailey's Crossroads,VA,Fairfax,38.8477,-77.1305,4.2275,1.5219
Ardmore,OK,Carter,34.1949,-97.1256,4.8697,1.7531
Soledad,CA,Monterey,36.4432,-121.3426,5.3507,1.9263
Zanesville,OH,Muskingum,39.9565,-82.0132,3.9859,1.4349
San Benito,TX,Cameron,26.1298,-97.644,4.9024,1.7649
Frederickson,WA,Pierce,47.0916,-122.3603,3.6009,1.2963
Medford,NY,Suffolk,40.822,-72.9859,4.0861,1.471
Cloverleaf,TX,Harris,29.7882,-95.1724,4.7376,1.7055
Lutz,FL,Hillsborough,28.1396,-82.4467,5.0641,1.8231
Dinuba,CA,Tulare,36.5453,-119.3987,5.4624,1.9665
North Potomac,MD,Montgomery,39.0955,-77.2373,4.0947,1.4741
Bainbridge Island,WA,Kitsap,47.6439,-122.5434,3.6009,1.2963
Dix Hills,NY,Suffolk,40.8033,-73.3375,4.1004,1.4761
Greenbelt,MD,Prince George's,38.9953,-76.8885,4.345,1.5642
Bayonet Point,FL,Pasco,28.3254,-82.6834,5.0641,1.8231
Ridgeland,MS,Madison,32.4236,-90.1481,4.6853,1.6867
Coral Terrace,FL,Miami-Dade,25.7464,-80.3049,5.0915,1.8329
Auburn Hills,MI,Oakland,42.6735,-83.2448,3.8465,1.3847
Selma,CA,Fresno,36.5715,-119.6143,5.4624,1.9665
Paris,TX,Lamar,33.6688,-95.546,4.6317,1.6674
Zion,IL,Lake,42.4603,-87.8511,3.7545,1.3516
Clinton,IA,Clinton,41.8435,-90.2412,4.0687,1.4647
Centerville,OH,Montgomery,39.6339,-84.1449,4.0729,1.4662
Homer Glen,IL,Will,41.6043,-87.9497,3.9205,1.4114
Riverside,OH,Montgomery,39.7835,-84.1219,4.0729,1.4662
Oak Ridge,FL,Orange,28.4727,-81.4169,4.9408,1.7787
Leland,NC,Brunswick,34.2042,-78.0279,4.56,1.6416
Socastee,SC,Horry,33.6871,-79.0086,4.6282,1.6662
Farmington,UT,Davis,40.9845,-111.9065,4.923,1.7723
Oak Harbor,WA,Island,48.2964,-122.6333,3.6569,1.3165
Herndon,VA,Fairfax,38.9699,-77.3867,4.2275,1.5219
Ponca City,OK,Kay,36.7235,-97.0677,4.786,1.723
Landover,MD,Prince George's,38.9241,-76.8875,4.345,1.5642
North Augusta,SC,Aiken,33.5214,-81.9547,4.6448,1.6721
King of Prussia,PA,Montgomery,40.0963,-75.3821,3.9492,1.4217
Decatur,GA,DeKalb,33.7711,-84.2963,4.5579,1.6408
Faribault,MN,Rice,44.2996,-93.2789,3.9987,1.4395
North Laurel,MD,Howard,39.1285,-76.8476,4.1694,1.501
Bay Point,CA,Contra Costa,38.0329,-121.9615,5.333,1.9199
Happy Valley,OR,Clackamas,45.4358,-122.5081,3.8231,1.3763
Port St. John,FL,Brevard,28.4757,-80.8104,4.92,1.7712
Benbrook,TX,Tarrant,32.6788,-97.4637,4.9167,1.77
West Memphis,AR,Crittenden,35.153,-90.1996,4.5105,1.6238
Kerrville,TX,Kerr,30.0398,-99.132,5.1575,1.8567
Ballenger Creek,MD,Frederick,39.3807,-77.4206,4.0947,1.4741
Ladera Ranch,CA,Orange,33.5492,-117.6417,5.4726,1.9701
White Bear Lake,MN,Ramsey,45.0656,-93.015,3.9347,1.4165
Collinsville,IL,Madison,38.677,-90.0063,4.2585,1.5331
Elmwood Park,IL,Cook,41.9225,-87.8163,3.9205,1.4114
Starkville,MS,Oktibbeha,33.4608,-88.8297,4.6201,1.6632
South Plainfield,NJ,Middlesex,40.5748,-74.4152,4.0175,1.4463
Westmont,IL,DuPage,41.7948,-87.9742,3.9205,1.4114
Wekiwa Springs,FL,Seminole,28.6984,-81.4251,4.9408,1.7787
Palmetto Bay,FL,Miami-Dade,25.6219,-80.3221,5.0915,1.8329
